{"type":"Topology","arcs":[],"objects":{"ConcungStore":{"type":"GeometryCollection","geometries":[{"type":"Point","coordinates":[106.754449,10.853272],"properties":{"Storecode":"42","Storename":"HCM - 753 Kha Van Can","Address":"753 Kha Vạn Cân, Phường Linh Tây, Thành phố Thủ Đức, Thành phố Hồ Chí Minh","Region":"HCM","Province":"Ho Chi Minh","District":"Thu Duc"}},{"type":"Point","coordinates":[106.653554,10.759953],"properties":{"Storecode":"43","Storename":"HCM - 174-176 Ta Uyen","Address":"174-176 Tạ Uyên, Phường 6, Quận 11","Region":"HCM","Province":"Ho Chi Minh","District":"Quan 11"}},{"type":"Point","coordinates":[106.64599,10.80179],"properties":{"Storecode":"46","Storename":"HCM - 241-245 Cong Hoa","Address":"241-245 Công Hòa, P13, Tân Bình","Region":"HCM","Province":"Ho Chi Minh","District":"Tan Binh"}},{"type":"Point","coordinates":[106.672771,10.771052],"properties":{"Storecode":"48","Storename":"HCM - 703 Le Hong Phong","Address":"703 Lê Hồng Phong, P12, Q10","Region":"HCM","Province":"Ho Chi Minh","District":"Quan 10"}},{"type":"Point","coordinates":[106.692677,10.792115],"properties":{"Storecode":"53","Storename":"HCM - 101 Tran Quang Khai","Address":"101 Trần Quang Khải, Phường Tân Định, quận 1","Region":"HCM","Province":"Ho Chi Minh","District":"Quan 1"}},{"type":"Point","coordinates":[106.703401,10.761819],"properties":{"Storecode":"58","Storename":"HCM - 317 Hoang Dieu","Address":"317 Hoàng Diệu, P6, Q4","Region":"HCM","Province":"Ho Chi Minh","District":"Quan 4"}},{"type":"Point","coordinates":[106.630541,10.770885],"properties":{"Storecode":"60","Storename":"HCM - 182 Hoa Binh","Address":"182D Hòa Bình P Hiệp Tận Quận Tân Phú","Region":"HCM","Province":"Ho Chi Minh","District":"Tan Phu"}},{"type":"Point","coordinates":[106.668485,10.732553],"properties":{"Storecode":"65","Storename":"HCM - C1 Pham Hung","Address":"C1/20A Đường Phạm Hùng , Ấp 4 Xã Bình Hưng , Huyện Bình Chánh , Tp.HCM","Region":"HCM","Province":"Ho Chi Minh","District":"Binh Chanh"}},{"type":"Point","coordinates":[106.771816,10.821825],"properties":{"Storecode":"76","Storename":"HCM - 345B Do Xuan Hop","Address":"345B Đỗ Xuân Hợp, Khu phố 5, Phước Long B, Thành phố Thủ Đức, Thành phố Hồ Chí Minh","Region":"HCM","Province":"Ho Chi Minh","District":"Thu Duc"}},{"type":"Point","coordinates":[106.650914,10.730644],"properties":{"Storecode":"79","Storename":"HCM - A3/15 Quoc Lo 50","Address":"A3/15 Ấp 2, Xã Bình Hưng, Bình Chánh, Hồ Chí Minh","Region":"HCM","Province":"Ho Chi Minh","District":"Binh Chanh"}},{"type":"Point","coordinates":[106.636948,10.838966],"properties":{"Storecode":"84","Storename":"HCM - 329 Phan Huy Ich","Address":"329 Phan Huy Ích, Phường 14, Quận Gò Vấp","Region":"HCM","Province":"Ho Chi Minh","District":"Go Vap"}},{"type":"Point","coordinates":[106.731135,10.797117],"properties":{"Storecode":"86","Storename":"HCM - 38 Tran Nao","Address":"38 Trần Não, Phường An Khánh, Thành phố Thủ Đức, Thành phố Hồ Chí Minh","Region":"HCM","Province":"Ho Chi Minh","District":"Thu Duc"}},{"type":"Point","coordinates":[106.614394,10.763909],"properties":{"Storecode":"87","Storename":"HCM - 631 Tinh Lo 10","Address":"631 Tỉnh Lệ 10, P. Bình Trị Đông, Bình Tân","Region":"HCM","Province":"Ho Chi Minh","District":"Binh Tan"}},{"type":"Point","coordinates":[106.675958,10.839526],"properties":{"Storecode":"89","Storename":"HCM - 310 Nguyen Oanh","Address":"310 Nguyễn Oanh, P. 17, Gò Vấp","Region":"HCM","Province":"Ho Chi Minh","District":"Go Vap"}},{"type":"Point","coordinates":[106.665223,10.983774],"properties":{"Storecode":"90","Storename":"BDU - 13 Yersin","Address":"13 Yersin, Tổ 15, Khu 01, P. Phú Cường, TP. Thủ Dầu 1, Tỉnh Bình Dương","Region":"SouthEast2","Province":"Binh Duong","District":"Thu Dau Mot"}},{"type":"Point","coordinates":[106.835696,10.95865],"properties":{"Storecode":"92","Storename":"DON - 178 Pham Van Thuan","Address":"178 Phạm Văn Thuận, Thống Nhất, TP. Biên Hòa, Đồng Nai","Region":"SouthEast2","Province":"Dong Nai","District":"Bien Hoa"}},{"type":"Point","coordinates":[106.820372,10.948807],"properties":{"Storecode":"95","Storename":"DON - 337 Duong 30 thang 4","Address":"337 Đường 30 tháng 4, P. Quyết Thắng, TP. Biên Hòa, Đồng Nai","Region":"SouthEast2","Province":"Dong Nai","District":"Bien Hoa"}},{"type":"Point","coordinates":[106.754284,10.79051],"properties":{"Storecode":"96","Storename":"HCM - 14C Nguyen Thi Dinh","Address":"14C Nguyễn Thị Định, P.An Phú, TP. Thủ Đức, TP. HCM","Region":"HCM","Province":"Ho Chi Minh","District":"Thu Duc"}},{"type":"Point","coordinates":[106.635324,10.747766],"properties":{"Storecode":"101","Storename":"HCM - 553 Hau Giang","Address":"553 Hậu Giang, Phường 11, Quận 6, HCM","Region":"HCM","Province":"Ho Chi Minh","District":"Quan 6"}},{"type":"Point","coordinates":[106.577067,10.897979],"properties":{"Storecode":"102","Storename":"HCM - 864 Quoc Lo 22","Address":"864 Quốc Lộ 22, Khu Phố 2, Củ Chi, HCM","Region":"HCM","Province":"Ho Chi Minh","District":"Cu Chi"}},{"type":"Point","coordinates":[108.027693,12.657404],"properties":{"Storecode":"103","Storename":"DLK - 384 Le Duan","Address":"384 Lê Duẩn, P. Eatam, Tp.Ban Mê Thuột","Region":"Highland2","Province":"Dak Lak","District":"Buon Me Thuot"}},{"type":"Point","coordinates":[105.436922,10.385015],"properties":{"Storecode":"104","Storename":"AGI - 2/5 Ton Duc Thang","Address":"2/5 Tôn Đức Thắng, F Mỹ Bình, TP Long Xuyên, An Giang.","Region":"Mekong2","Province":"An Giang","District":"Long Xuyen"}},{"type":"Point","coordinates":[105.759956,10.030673],"properties":{"Storecode":"109","Storename":"CTO - 305H/10 KV3","Address":"305H/10 KV3, An Khánh, Ninh Kiều, Cần Thơ","Region":"Mekong2","Province":"Can Tho","District":"Ninh Kieu"}},{"type":"Point","coordinates":[106.108061,11.308295],"properties":{"Storecode":"110","Storename":"TNI - 518 CMT8","Address":"518 Cách Mạng Tháng Tám, P3, Tây Ninh","Region":"SouthEast1","Province":"Tay Ninh","District":"Tay Ninh"}},{"type":"Point","coordinates":[108.061409,12.690848],"properties":{"Storecode":"113","Storename":"DLK - 214 Nguyen Tat Thanh","Address":"214 Nguyễn Tất Thành, P.Tân Lập. Tp. Ban Mê Thuột","Region":"Highland2","Province":"Dak Lak","District":"Buon Me Thuot"}},{"type":"Point","coordinates":[106.567246,10.663042],"properties":{"Storecode":"116","Storename":"HCM - D1B Ap 4 Binh Chanh","Address":"D1B Ấp 4, xã Bình Chánh, huyện Bình Chánh, TpHCM","Region":"HCM","Province":"Ho Chi Minh","District":"Binh Chanh"}},{"type":"Point","coordinates":[105.97198,10.253064],"properties":{"Storecode":"117","Storename":"VLO - 47 Trung Nu Vuong","Address":"47 Trưng Nữ Vương, P1, Tp. Vĩnh Long","Region":"Mekong2","Province":"Vinh Long","District":"Vinh Long"}},{"type":"Point","coordinates":[106.655707,10.992984],"properties":{"Storecode":"118","Storename":"BDU - 182 CMT8","Address":"182 Cách Mạng Tháng Tám, P. Chính Mỹ, Tp. Thủ Dầu Một, Bình Dương","Region":"SouthEast2","Province":"Binh Duong","District":"Thu Dau Mot"}},{"type":"Point","coordinates":[106.773411,10.788367],"properties":{"Storecode":"119","Storename":"HCM - 595 Nguyen Duy Trinh","Address":"595 Nguyễn Duy Trinh, P.Bình Trung Đông, Thành phố Thủ Đức, TP. HCM","Region":"HCM","Province":"Ho Chi Minh","District":"Thu Duc"}},{"type":"Point","coordinates":[105.085475,10.006388],"properties":{"Storecode":"120","Storename":"KGI - 32 Nguyen Trung Truc","Address":"32 Nguyễn Trung Trực, P.Vĩnh Bảo, Tp. Rạch Giá, tỉnh Kiên Giang.","Region":"Mekong2","Province":"Kien Giang","District":"Rach Gia"}},{"type":"Point","coordinates":[108.103876,10.936503],"properties":{"Storecode":"121","Storename":"BTH - 157 Tran Hung Dao","Address":"157 Trần Hưng Đạo, P.Phú Thủy, Tp.Phan Thiết.","Region":"Central1","Province":"Binh Thuan","District":"Phan Thiet"}},{"type":"Point","coordinates":[106.598854,10.888353],"properties":{"Storecode":"122","Storename":"HCM - 6/11A Quang Trung","Address":"6/11A Quang Trung, huyện Hóc Môn, Tp. Hồ Chí Minh","Region":"HCM","Province":"Ho Chi Minh","District":"Hoc Mon"}},{"type":"Point","coordinates":[106.615851,10.866607],"properties":{"Storecode":"123","Storename":"HCM - 12/6 To Ky","Address":"12/6 Tô Ký, P. Tân Chánh Hiệp, Q.12, HCM","Region":"HCM","Province":"Ho Chi Minh","District":"Quan 12"}},{"type":"Point","coordinates":[105.43704,10.378297],"properties":{"Storecode":"125","Storename":"AGI - 221/7 Ha Hoang Ho","Address":"221/7 Hà Hoàng Hổ, Phường Mỹ Xuyên, TP. Long Xuyên, An Giang","Region":"Mekong2","Province":"An Giang","District":"Long Xuyen"}},{"type":"Point","coordinates":[106.673881,10.776075],"properties":{"Storecode":"126","Storename":"HCM - 291 CMT8","Address":"291 Cách Mạng Tháng 8, Phường 12, Quận 10, TP. HCM","Region":"HCM","Province":"Ho Chi Minh","District":"Quan 10"}},{"type":"Point","coordinates":[106.127191,11.285676],"properties":{"Storecode":"127","Storename":"TNI - 15-17 Pham Hung","Address":"15-17 Phạm Hùng, Khu phố 2, TT. Hòa Thành, Tỉnh Tây Ninh","Region":"SouthEast1","Province":"Tay Ninh","District":"Hoa Thanh"}},{"type":"Point","coordinates":[106.346712,10.373553],"properties":{"Storecode":"128","Storename":"TGI - 42 Ap Bac","Address":"42 Ấp Bắc, P5, TP. Mỹ Tho, Tiền Giang","Region":"Mekong1","Province":"Tien Giang","District":"My Tho"}},{"type":"Point","coordinates":[106.902569,11.538116],"properties":{"Storecode":"131","Storename":"BPH - 1108 Phu Rieng Do","Address":"1108 Phú Riềng Đỏ, Khu Phố 2, P. Tân Đồng, TX Đồng Xoài, Bình Phước","Region":"SouthEast2","Province":"Binh Phuoc","District":"Dong Xoai"}},{"type":"Point","coordinates":[106.789173,10.845906],"properties":{"Storecode":"132","Storename":"HCM - 172 Le Van Viet","Address":"172 Lê Văn Việt, P. Tăng Nhơn Phú, Thành phố Thủ Đức, Thành phố Hồ Chí Minh","Region":"HCM","Province":"Ho Chi Minh","District":"Thu Duc"}},{"type":"Point","coordinates":[105.117696,10.709062],"properties":{"Storecode":"134","Storename":"AGI - 112 Nguyen Van Thoai","Address":"112 Nguyễn Văn Thoại, Khóm 6, P. Châu Phú A, TP. Châu Đốc, An Giang","Region":"Mekong2","Province":"An Giang","District":"Chau Doc"}},{"type":"Point","coordinates":[105.761878,10.020067],"properties":{"Storecode":"135","Storename":"CTO - 196 Duong 3/2","Address":"196 Đường 3 Tháng 2, P. Hưng Lợi, Cần Thơ","Region":"Mekong2","Province":"Can Tho","District":"Ninh Kieu"}},{"type":"Point","coordinates":[106.737433,10.707224],"properties":{"Storecode":"136","Storename":"HCM - 1649 Huynh Tan Phat","Address":"1649 Huỳnh Tấn Phát, P. Phú Mỹ, Q.7, HCM","Region":"HCM","Province":"Ho Chi Minh","District":"Quan 7"}},{"type":"Point","coordinates":[106.597887,10.815826],"properties":{"Storecode":"138","Storename":"HCM - 97 Nguyen Thi Tu","Address":"97 -101 Nguyễn Thị Tú, khu phố 3, Phường Bình Hưng Hòa B, Quận Bình Tân, Thành phố Hồ Chí Minh, Việt Nam","Region":"HCM","Province":"Ho Chi Minh","District":"Binh Tan"}},{"type":"Point","coordinates":[106.76818,10.905813],"properties":{"Storecode":"139","Storename":"BDU - 283 Nguyen An Ninh","Address":"283 Nguyễn An Ninh, P. Dĩ An, Thành phố Dĩ An, Bình Dương","Region":"SouthEast2","Province":"Binh Duong","District":"Di An"}},{"type":"Point","coordinates":[106.490177,10.635373],"properties":{"Storecode":"140","Storename":"LAN - 2 Phan Van Mang","Address":"2 Phan Văn Mảng, KP7, Bến Lức, Long An","Region":"Mekong1","Province":"Long An","District":"Ben Luc"}},{"type":"Point","coordinates":[106.648725,10.877531],"properties":{"Storecode":"141","Storename":"HCM - 107/1 Le Van Khuong","Address":"107/1 Lê Văn Khương, P. Thới An, Q.12, HCM","Region":"HCM","Province":"Ho Chi Minh","District":"Quan 12"}},{"type":"Point","coordinates":[109.145017,11.917153],"properties":{"Storecode":"144","Storename":"KHO - 2197 Dai Lo Hung Vuong","Address":"2193 -2195 - 2197 Đại Lộ Hùng Vương, Phường Cam Lợi, Thành Phố Cam Ranh, Tỉnh Khánh Hòa, Việt Nam","Region":"Central1","Province":"Khanh Hoa","District":"Cam Ranh"}},{"type":"Point","coordinates":[106.909742,10.972036],"properties":{"Storecode":"145","Storename":"DON - 34 Khu Pho 4","Address":"34 Khu Phố 4, Phường Long Bình, Biên Hòa, Đồng Nai","Region":"SouthEast2","Province":"Dong Nai","District":"Bien Hoa"}},{"type":"Point","coordinates":[106.952914,10.780625],"properties":{"Storecode":"149","Storename":"DON - 1-1/1 Hai Ba Trung","Address":"1-1/1 đường Hai Bà Trưng, Khu Phước Hải, Thị Trấn Long Thành, Huyện Long Thành, Tỉnh Đồng Nai,","Region":"SouthEast2","Province":"Dong Nai","District":"Long Thanh"}},{"type":"Point","coordinates":[106.670664,10.762706],"properties":{"Storecode":"154","Storename":"HCM - 338 Ngo Gia Tu","Address":"338 - 342 Ngô Gia Tự, P.4, Q.10, TP.HCM","Region":"HCM","Province":"Ho Chi Minh","District":"Quan 10"}},{"type":"Point","coordinates":[106.710841,10.721922],"properties":{"Storecode":"155","Storename":"HCM - Grand View Phu My Hung","Address":"Grand View, Phú Mỹ Hưng, Nguyễn Đức Cảnh, P. Tân Phong, Q.7, TP.HCM","Region":"HCM","Province":"Ho Chi Minh","District":"Quan 7"}},{"type":"Point","coordinates":[106.650308,10.751371],"properties":{"Storecode":"156","Storename":"HCM - 37A Nguyen Thi Nho","Address":"37A-37B Nguyễn Thị Nhỏ, P2, Q6, Tp.HCM","Region":"HCM","Province":"Ho Chi Minh","District":"Quan 6"}},{"type":"Point","coordinates":[106.376658,10.235982],"properties":{"Storecode":"157","Storename":"BTR - 179 Nguyen Dinh Chieu","Address":"179 Nguyễn Đình Chiểu, P.2, Tp. Bến Tre, Tỉnh Bến Tre","Region":"Mekong1","Province":"Ben Tre","District":"Ben Tre"}},{"type":"Point","coordinates":[105.778597,10.044131],"properties":{"Storecode":"158","Storename":"CTO - 50B Hung Vuong","Address":"50B Hùng Vương, Phường Thới Bình, Quận Ninh Kiều, Tp. Cần Thơ","Region":"Mekong2","Province":"Can Tho","District":"Ninh Kieu"}},{"type":"Point","coordinates":[106.372047,10.355032],"properties":{"Storecode":"159","Storename":"TGI - 124 Dinh Bo Linh","Address":"124 Đinh Bộ Lĩnh, Phường 2, TP Mỹ Tho, Tỉnh Tiền Giang","Region":"Mekong1","Province":"Tien Giang","District":"My Tho"}},{"type":"Point","coordinates":[106.659834,10.852028],"properties":{"Storecode":"161","Storename":"HCM - 44/1D Pham Van Chieu","Address":"44/1D Phạm Văn Chiêu Gò Vấp, HCM","Region":"HCM","Province":"Ho Chi Minh","District":"Go Vap"}},{"type":"Point","coordinates":[106.72805,10.737759],"properties":{"Storecode":"163","Storename":"HCM - 28-34 Nguyen Thi Thap","Address":"28-30-32-34 Nguyễn Thị Thập, Phường Bình Thuận, Quận 7, Thành phố. Hồ Chí Minh","Region":"HCM","Province":"Ho Chi Minh","District":"Quan 7"}},{"type":"Point","coordinates":[106.730582,10.790511],"properties":{"Storecode":"164","Storename":"HCM - 165 Tran Nao","Address":"165 Trần Não, Khu Phố 3, Phường An Khánh, Thành phố Thủ Đức, Thành phố Hồ Chí Minh","Region":"HCM","Province":"Ho Chi Minh","District":"Thu Duc"}},{"type":"Point","coordinates":[106.767224,10.828362],"properties":{"Storecode":"169","Storename":"HCM - 178 Do Xuan Hop","Address":"178 Đỗ Xuân Hợp, Phước Long A, Thành phố Thủ Đức, Thành phố Hồ Chí Minh","Region":"HCM","Province":"Ho Chi Minh","District":"Thu Duc"}},{"type":"Point","coordinates":[105.764111,10.290184],"properties":{"Storecode":"170","Storename":"ĐTH - 281-283 Nguyen Sinh Sac","Address":"281-283 đường Nguyễn Sinh Sắc, P2. Thành phố Sa Đéc, Tỉnh Đồng Tháp","Region":"Mekong2","Province":"Dong Thap","District":"Sa Dec"}},{"type":"Point","coordinates":[106.404346,10.539334],"properties":{"Storecode":"172","Storename":"LAN - Tan An","Address":"70 Hùng Vương , P.2, TP. Tân An, Long An","Region":"Mekong1","Province":"Long An","District":"Tan An"}},{"type":"Point","coordinates":[106.732123,10.704683],"properties":{"Storecode":"173","Storename":"HCM - 130 Pham Huu Lau","Address":"130 Đường Phạm Hữu Lầu, P. Phú Mỹ, Quận 7, TP. HCM","Region":"HCM","Province":"Ho Chi Minh","District":"Quan 7"}},{"type":"Point","coordinates":[106.718428,10.790987],"properties":{"Storecode":"174","Storename":"HCM - Sai Gon Pearl","Address":"Sai Gòn Pearl, 92 Nguyễn Hữu Cảnh, P.22, Q. Bình Thạnh","Region":"HCM","Province":"Ho Chi Minh","District":"Binh Thanh"}},{"type":"Point","coordinates":[108.002473,14.368675],"properties":{"Storecode":"178","Storename":"KTU - 691 Phan Dinh Phung","Address":"691 Phan Đình Phùng, P. Duy Tân, Tx Kon Tum","Region":"Highland3","Province":"Kon Tum","District":"KonTum"}},{"type":"Point","coordinates":[106.64254,10.877188],"properties":{"Storecode":"179","Storename":"HCM - 43A Nguyen Anh Thu","Address":"43A Nguyễn Ảnh Thủ, Khu phố 2, Phường Hiệp Thành Quận 12, HCM","Region":"HCM","Province":"Ho Chi Minh","District":"Quan 12"}},{"type":"Point","coordinates":[106.628071,10.805844],"properties":{"Storecode":"180","Storename":"HCM - 129-131 Le Trong Tan","Address":"129 - 131 Lê Trọng Tấn, P.Sơn Kỳ, Q.Tân Phú, HCM","Region":"HCM","Province":"Ho Chi Minh","District":"Tan Phu"}},{"type":"Point","coordinates":[106.673471,10.799581],"properties":{"Storecode":"181","Storename":"HCM - 191 Hoang Van Thu","Address":"191 Hoàng Văn Thụ, P.8, Q. Phú Nhuận, HCM","Region":"HCM","Province":"Ho Chi Minh","District":"Phu Nhuan"}},{"type":"Point","coordinates":[108.990514,11.564909],"properties":{"Storecode":"182","Storename":"NTH - 450A Thong Nhat","Address":"450A Thống Nhất, P. Kinh Dinh, Tp. Phan Rang - Tháp Chàm, Tỉnh Ninh Thuận","Region":"Central1","Province":"Ninh Thuan","District":"Thap Cham"}},{"type":"Point","coordinates":[105.721361,9.29562],"properties":{"Storecode":"183","Storename":"BLI - 313-315 Tran Phu","Address":"313 - 315 Đường Trần Phú, P.7, Tp. Bạc Liêu, Bạc Liêu","Region":"Mekong2","Province":"Bac Lieu","District":"Bac Lieu"}},{"type":"Point","coordinates":[108.436052,11.947925],"properties":{"Storecode":"184","Storename":"LDO - 287 Phan Dinh Phung","Address":"287 Phan Đình Phùng, phường 12, Tp. Đà Lạt, Lâm Đồng","Region":"Highland1","Province":"Lam Dong","District":"Da Lat"}},{"type":"Point","coordinates":[107.244133,10.932124],"properties":{"Storecode":"186","Storename":"DON- 07 Le Loi","Address":"07 Lê Lợi, Phường Xuân An, Thành phố Long Khánh, Tỉnh Đồng Nai","Region":"SouthEast2","Province":"Dong Nai","District":"Long Khanh"}},{"type":"Point","coordinates":[106.640289,10.790216],"properties":{"Storecode":"187","Storename":"HCM - 788 Au Co","Address":"788 Âu Cơ, phường 14, quận Tân Bình, Tp.HCM","Region":"HCM","Province":"Ho Chi Minh","District":"Tan Binh"}},{"type":"Point","coordinates":[106.372831,10.250265],"properties":{"Storecode":"190","Storename":"BTR - 72B Dong Khoi","Address":"72B Đại Lộ Đồng Khởi, Phú Tân, TP. Bến Tre, Bến Tre","Region":"Mekong1","Province":"Ben Tre","District":"Ben Tre"}},{"type":"Point","coordinates":[106.971238,10.849026],"properties":{"Storecode":"191","Storename":"DON - 129 Phung Hung","Address":"Cửa hàng 129 Phùng Hưng, khu 4, ấp 8, huyện Long Thành, Đồng Nai","Region":"SouthEast2","Province":"Dong Nai","District":"Long Thanh"}},{"type":"Point","coordinates":[106.669625,10.767697],"properties":{"Storecode":"192","Storename":"HCM - 391 Ly Thai To","Address":"391 Lý Thái Tổ, phường 9, Quận 10","Region":"HCM","Province":"Ho Chi Minh","District":"Quan 10"}},{"type":"Point","coordinates":[106.590722,11.153055],"properties":{"Storecode":"194","Storename":"BDU - 426 Duong 30 thang 4","Address":"426 đường 30 tháng 4, khu phố 2, phường Mỹ Phước, Thị xã Bến Cát, Tỉnh Bình Dương","Region":"SouthEast2","Province":"Binh Duong","District":"Ben Cat"}},{"type":"Point","coordinates":[107.172709,10.4995],"properties":{"Storecode":"195","Storename":"BVT - 85 Nguyen Thanh Dang","Address":"85 Nguyễn Thanh Đằng, P Phước Hiệp, Tp Bà Rịa, tỉnh Bà Rịa - Vũng Tàu","Region":"SouthEast2","Province":"Ba Ria - Vung Tau","District":"Ba Ria"}},{"type":"Point","coordinates":[106.623823,17.46385],"properties":{"Storecode":"197","Storename":"QBI - 32 Quang Trung","Address":"32 Quang Trung, phường Hải Đình, Tp. Đồng Hới, tỉnh Quảng Bình","Region":"Central3","Province":"Quang Binh","District":"Dong Hoi"}},{"type":"Point","coordinates":[106.604795,17.467105],"properties":{"Storecode":"198","Storename":"QBI - 309 Tran Hung Dao","Address":"309 Trần Hưng Đạo, Đồng Hới, tỉnh Quảng Bình","Region":"Central3","Province":"Quang Binh","District":"Dong Hoi"}},{"type":"Point","coordinates":[108.485519,15.571498],"properties":{"Storecode":"199","Storename":"QNA - 63-65 Phan Chu Trinh","Address":"63-65 Phan Chu Trinh, thị xã Tam Kỳ, tỉnh Quảng Nam","Region":"Central2","Province":"Quang Nam","District":"Tam Ky"}},{"type":"Point","coordinates":[106.590114,10.847886],"properties":{"Storecode":"200","Storename":"HCM - 149 Phan Van Hon","Address":"149 Phan Văn Hớn, ấp 7, Xã Xuân Thới Thượng, Huyện Hóc Môn, TP HCM","Region":"HCM","Province":"Ho Chi Minh","District":"Hoc Mon"}},{"type":"Point","coordinates":[105.707361,21.231069],"properties":{"Storecode":"201","Storename":"VPH - 147 Hai Ba Trung","Address":"Số Nhà 147 Đường Hai Bà Trưng, Phường Hùng Vương, Thành phố Phúc Yên, Tỉnh Vĩnh Phúc, Việt Nam","Region":"North","Province":"Vinh Phuc","District":"Phuc Yen"}},{"type":"Point","coordinates":[104.017336,10.021107],"properties":{"Storecode":"202","Storename":"KGI - 127 Nguyen Van Cu","Address":"127 Nguyễn Văn Cừ, Khu Phố 8, thị trấn An Thới, Phú Quốc, Kiên Giang","Region":"Mekong2","Province":"Kien Giang","District":"Phu Quoc"}},{"type":"Point","coordinates":[107.599313,16.470037],"properties":{"Storecode":"203","Storename":"HUE - 1 Ba Trieu","Address":"01 Bà Triệu, Phường Xuân Phú, TP. Huế, Tỉnh Thừa Thiên Huế","Region":"Central3","Province":"Hue","District":"Hue"}},{"type":"Point","coordinates":[107.114149,10.39898],"properties":{"Storecode":"204","Storename":"BVT - 559-563 Rach Dua","Address":"559-561-563 đường 30/4, P. Rạch Dừa, Tp. Vũng Tàu, tỉnh Bà Rịa - Vũng Tàu","Region":"SouthEast2","Province":"Ba Ria - Vung Tau","District":"Vung Tau"}},{"type":"Point","coordinates":[108.07862,11.593132],"properties":{"Storecode":"205","Storename":"LDO - 827-829 Hung Vuong","Address":"827 - 829 Hùng Vương, thị trấn Di Linh, Lâm Đồng.","Region":"Highland1","Province":"Lam Dong","District":"Di Linh"}},{"type":"Point","coordinates":[106.611149,10.751603],"properties":{"Storecode":"207","Storename":"HCM - 333-335 Duong So 7","Address":"333 - 335 , đường số 7 , phường Bình Trị Đông B, quận Bình Tân, thành phố Hồ Chí Minh","Region":"HCM","Province":"Ho Chi Minh","District":"Binh Tan"}},{"type":"Point","coordinates":[106.861183,10.956768],"properties":{"Storecode":"208","Storename":"DON - G1 Dong Khoi","Address":"G1, đường Đồng Khởi, phường Tân Hiệp, thành phố Biên Hòa, tỉnh Đồng Nai.","Region":"SouthEast2","Province":"Dong Nai","District":"Bien Hoa"}},{"type":"Point","coordinates":[106.700384,10.71518],"properties":{"Storecode":"209","Storename":"HCM - 902 Le Van Luong","Address":"902 Lê Văn Lương, xã Phước Kiểng, Huyện Nhà Bè, TP.HCM","Region":"HCM","Province":"Ho Chi Minh","District":"Nha Be"}},{"type":"Point","coordinates":[105.621751,10.109108],"properties":{"Storecode":"211","Storename":"CTO - 1209 Quoc Lo 91","Address":"1209 Đường Quốc Lộ 91, Phường Châu Văn Liêm, Quận Ô Môn, TP Cần Thơ.","Region":"Mekong2","Province":"Can Tho","District":"O Mon"}},{"type":"Point","coordinates":[106.698745,10.778209],"properties":{"Storecode":"212","Storename":"BDU - 01 Pasteur","Address":"Số 01 Pasteur , Khu Phố Chợ, Thị Trấn Lái Thiêu, Thành phố Thuận An, Bình Dương","Region":"SouthEast2","Province":"Binh Duong","District":"Thuan An"}},{"type":"Point","coordinates":[109.113324,13.889091],"properties":{"Storecode":"213","Storename":"BDI - 256 Ngo Gia Tu","Address":"256 Ngô Gia Tự, phường Bình Định, thị xã An Nhơn, Tỉnh Bình Định","Region":"Central2","Province":"Binh Dinh","District":"An Nhon"}},{"type":"Point","coordinates":[106.355014,11.032747],"properties":{"Storecode":"214","Storename":"TNI - 180 Quoc Lo 22","Address":"180 Quốc Lộ 22, khu phố Lộc Du, thị trấn Trảng Bảng, tỉnh Tây Ninh","Region":"SouthEast1","Province":"Tay Ninh","District":"Trang Bang"}},{"type":"Point","coordinates":[106.602857,10.815637],"properties":{"Storecode":"215","Storename":"HCM - 755 Le Trong Tan","Address":"751-753-755 Đường Lê Trọng Tấn, Phường Bình Hưng Hòa, Quận Bình Tân, Thành phố Hồ Chí Minh","Region":"HCM","Province":"Ho Chi Minh","District":"Binh Tan"}},{"type":"Point","coordinates":[106.686126,10.891395],"properties":{"Storecode":"216","Storename":"HCM - 829-829A Ha Huy Giap","Address":"829 - 829A Hà Huy Giáp, phường Thạnh Xuân, quận 12, TPHCM","Region":"HCM","Province":"Ho Chi Minh","District":"Quan 12"}},{"type":"Point","coordinates":[108.565933,11.173579],"properties":{"Storecode":"218","Storename":"BTH - 207-209 Thong Nhat","Address":"207 - 209 Thống Nhất, dân phố 14, thị trấn Phan Rí Cửa, huyện Tuy Phong, tỉnh Bình Thuận.","Region":"Central1","Province":"Binh Thuan","District":"Tuy Phong"}},{"type":"Point","coordinates":[105.133403,10.701659],"properties":{"Storecode":"220","Storename":"AGI - 110 Ton Duc Thang","Address":"110 Tôn Đức Thắng, P.Long Thạnh, TX. Tân Châu, Tỉnh An Giang","Region":"Mekong2","Province":"An Giang","District":"Tan Chau"}},{"type":"Point","coordinates":[106.608896,11.654464],"properties":{"Storecode":"221","Storename":"BPH - 269 Nguyen Hue","Address":"269 Nguyễn Huệ, KP, Bình Phú, P. An Lộc, Thị xã Bình Long, tỉnh Bình Phước","Region":"SouthEast2","Province":"Binh Phuoc","District":"Binh Long"}},{"type":"Point","coordinates":[106.756661,10.869751],"properties":{"Storecode":"222","Storename":"BDU - 119-121 An Binh","Address":"119-121 đường An Bình, phường An Bình, Thành phố Dĩ An, tỉnh Bình Dương.","Region":"SouthEast2","Province":"Binh Duong","District":"Di An"}},{"type":"Point","coordinates":[106.622742,10.78988],"properties":{"Storecode":"223","Storename":"HCM - 213-215 Tan Huong","Address":"213 - 215 Tân Hương, phường Tân Quý, quận Tân Phú, TPHCM","Region":"HCM","Province":"Ho Chi Minh","District":"Tan Phu"}},{"type":"Point","coordinates":[106.631918,10.828289],"properties":{"Storecode":"225","Storename":"HCM - 89/2-91 Phan Huy Ich","Address":"89/2 -91 Phan Huy Ích, P.15, Quận Tân Bình, Tp HCM","Region":"HCM","Province":"Ho Chi Minh","District":"Tan Binh"}},{"type":"Point","coordinates":[106.720227,11.005722],"properties":{"Storecode":"227","Storename":"BDU - 26 Duong DT 746","Address":"Đất số 26 Đường DT746, Khu phố Khánh Thạnh, Phường Tân Phước Khánh, Thị Xã Tân uyên, Bình Dương","Region":"SouthEast2","Province":"Binh Duong","District":"Tan Uyen"}},{"type":"Point","coordinates":[107.24593,10.646717],"properties":{"Storecode":"229","Storename":"BVT - 236-238 Hung Vuong","Address":"Số 236-238 đường Hùng Vương, thị trấn Ngãi Giao, huyện Châu Đức, tỉnh Bà Rịa Vũng Tàu","Region":"SouthEast2","Province":"Ba Ria - Vung Tau","District":"Chau Duc"}},{"type":"Point","coordinates":[105.531318,10.269358],"properties":{"Storecode":"230","Storename":"CTO - Quoc Lo 91","Address":"Đường QL91, KV Long Thạnh 1, phường Thốt Nốt, quận Thốt Nốt, Thành Phố Cần Thơ","Region":"Mekong2","Province":"Can Tho","District":"Thot Not"}},{"type":"Point","coordinates":[105.440141,10.377496],"properties":{"Storecode":"231","Storename":"AGI - 315/4 Tran Hung Dao","Address":"315/4 Trần Hưng Đạo, Phường Mỹ Long, TP Long Xuyên, An Giang.","Region":"Mekong2","Province":"An Giang","District":"Long Xuyen"}},{"type":"Point","coordinates":[106.79221,11.28945],"properties":{"Storecode":"232","Storename":"BDU - 39 Doc Lap","Address":"39 Độc Lập, Kp1, Thị Trấn Phước Vĩnh, Phú Giáo, Bình Dương","Region":"SouthEast2","Province":"Binh Duong","District":"Phu Giao"}},{"type":"Point","coordinates":[108.371451,11.729568],"properties":{"Storecode":"233","Storename":"LDO - 494 Quoc Lo 20","Address":"494 Quốc lộ 20, thị trấn Liên Nghĩa, huyện Đức Trọng, tỉnh Lâm Đồng","Region":"Highland1","Province":"Lam Dong","District":"Duc Trong"}},{"type":"Point","coordinates":[106.812929,10.802746],"properties":{"Storecode":"234","Storename":"HCM - 1187 Nguyen Duy Trinh","Address":"1187 Nguyễn Duy Trinh, P. Long Trường, Thành phố Thủ Đức, Thành phố Hồ Chí Minh","Region":"HCM","Province":"Ho Chi Minh","District":"Thu Duc"}},{"type":"Point","coordinates":[105.870258,21.418427],"properties":{"Storecode":"237","Storename":"TNG - 662 Pham Van Dong","Address":"662 - 664 Phạm Văn Đồng, phường Ba Hàng. TX. Phổ Yên, tỉnh Thái Nguyên","Region":"North","Province":"Thai Nguyen","District":"Pho Yen"}},{"type":"Point","coordinates":[106.63811,10.853778],"properties":{"Storecode":"238","Storename":"HCM - 972-974-976 Nguyen Van Qua","Address":"972-974-976 Nguyễn Văn Quá, phường Đông Hưng Thuận, quận 12, TPHCM","Region":"HCM","Province":"Ho Chi Minh","District":"Quan 12"}},{"type":"Point","coordinates":[105.764501,10.060738],"properties":{"Storecode":"239","Storename":"CTO - 8A CMT8","Address":"8A Đường CMT8, Phường An Thới, Quận Bình Thủy, TP.Cần Thơ","Region":"Mekong2","Province":"Can Tho","District":"Binh Thuy"}},{"type":"Point","coordinates":[106.678122,10.36458],"properties":{"Storecode":"240","Storename":"TGI - 364-365 Nguyen Hue","Address":"364-365 Nguyễn Huệ, KP 3, P.2, TX. Gò Công, Tiền Giang","Region":"Mekong1","Province":"Tien Giang","District":"Go Cong"}},{"type":"Point","coordinates":[106.84089,11.00664],"properties":{"Storecode":"242","Storename":"DON - DT 768","Address":"DT768, ấp 1, xã Thạnh Phú, huyện Vĩnh Cửu, tỉnh Đồng Nai.","Region":"SouthEast2","Province":"Dong Nai","District":"Vinh Cuu"}},{"type":"Point","coordinates":[105.48692,10.508485],"properties":{"Storecode":"243","Storename":"AGI - 200 Tinh Lo 942","Address":"Số 200 Đường Tỉnh Lộ 942, Thị trấn Mỹ Luông, Huyện Chợ Mới, Tỉnh An Giang","Region":"Mekong2","Province":"An Giang","District":"Cho Moi"}},{"type":"Point","coordinates":[106.666694,11.07555],"properties":{"Storecode":"244","Storename":"BDU - DT 741","Address":"DT741, khu phố Phú Nghị. Hòa Lợi, Thị Xã Bến Cát, Bình Dương","Region":"SouthEast2","Province":"Binh Duong","District":"Ben Cat"}},{"type":"Point","coordinates":[106.709736,10.936698],"properties":{"Storecode":"246","Storename":"BDU - E3/1 KP Binh Thuan 2","Address":"E3/1 Kp Bình Thuận 2, KDC Thuận Giao,Thành phố Thuận An, Bình Dương","Region":"SouthEast2","Province":"Binh Duong","District":"Thuan An"}},{"type":"Point","coordinates":[106.8115,10.849836],"properties":{"Storecode":"247","Storename":"HCM - 655 Le Van Viet","Address":"655 Lê Văn Việt, Khu Phố 6, P.Tân Phú, Q.9, TPHCM.","Region":"HCM","Province":"Ho Chi Minh","District":"Thu Duc"}},{"type":"Point","coordinates":[105.010862,8.943646],"properties":{"Storecode":"249","Storename":"CMA - 288 Quoc Lo 1A","Address":"Số 288 đường QL1A, Thị trấn Cái Nước, Huyện Cái Nước , Tỉnh Cà Mau","Region":"Mekong2","Province":"Ca Mau","District":"Cai Nuoc"}},{"type":"Point","coordinates":[105.419404,9.228053],"properties":{"Storecode":"250","Storename":"BLI - 160-162 Quoc Lo 1A","Address":"160-162 , Đường QL1A , Phường Hộ Phòng , TX Giá Rai , Tỉnh Bạc Liêu","Region":"Mekong2","Province":"Bac Lieu","District":"Gia Rai"}},{"type":"Point","coordinates":[105.974188,9.603592],"properties":{"Storecode":"251","Storename":"STR - 31-33 Hai Ba Trung","Address":"31-33 , đường Hai Bà Trưng, phường 1 , thành phố Sóc Trăng, tỉnh Sóc Trăng.","Region":"Mekong2","Province":"Soc Trang","District":"Soc Trang"}},{"type":"Point","coordinates":[109.219498,13.783432],"properties":{"Storecode":"252","Storename":"BDI - 9 Vo Nguyen Giap","Address":"Cửa hàng số 9 Võ Nguyên Giáp, P. Đống Đa, Tp. Quy Nhơn, Bình Định","Region":"Central2","Province":"Binh Dinh","District":"Qui Nhon"}},{"type":"Point","coordinates":[108.946486,11.601745],"properties":{"Storecode":"254","Storename":"NTH - 602-604-606 Duong 21/8","Address":"602-604-606 đường 21/8 TP Phan Rang, Tháp Chàm, Tỉnh Ninh Thuận.","Region":"Central1","Province":"Ninh Thuan","District":"Thap Cham"}},{"type":"Point","coordinates":[106.751572,10.903331],"properties":{"Storecode":"255","Storename":"BDU - 27/20A Nguyen Trai","Address":"27/20A Nguyễn Trãi, Kp Thống Nhất 1, P Dĩ An, Thành phố Dĩ An, Bình Dương.","Region":"SouthEast2","Province":"Binh Duong","District":"Di An"}},{"type":"Point","coordinates":[106.627959,10.776934],"properties":{"Storecode":"256","Storename":"HCM - 311A Thoai Ngoc Hau","Address":"311A Thoại Ngọc Hầu, P. Tân Hiệp, Tân Phú, TPHCM","Region":"HCM","Province":"Ho Chi Minh","District":"Tan Phu"}},{"type":"Point","coordinates":[106.623086,10.745447],"properties":{"Storecode":"257","Storename":"HCM - 202 Kinh Duong Vuong","Address":"202 Kinh Dương Vương, KP 4, Phường An Lạc A, Quận Bình Tân, TP HCM","Region":"HCM","Province":"Ho Chi Minh","District":"Binh Tan"}},{"type":"Point","coordinates":[106.394905,10.543674],"properties":{"Storecode":"259","Storename":"LAN - 167 Quoc Lo 62","Address":"3 kios nhà số 167 Quốc lộ 62, Phường 6, Thành phố Tân An, Tỉnh Long An","Region":"Mekong1","Province":"Long An","District":"Tan An"}},{"type":"Point","coordinates":[109.309438,13.087048],"properties":{"Storecode":"261","Storename":"PYN - 287B Tran Hung Dao","Address":"287B Trần Hưng Đạo, P.4, Tp. Tuy Hòa, Phú Yên","Region":"Central2","Province":"Phu Yen","District":"Tuy Hoa"}},{"type":"Point","coordinates":[108.992917,11.558092],"properties":{"Storecode":"263","Storename":"NTH - 414-418 Ngo Gia Tu","Address":"414-418 Ngô Gia Tự, Tp. Phan Rang, Tháp Chàm, Ninh Thuận","Region":"Central1","Province":"Ninh Thuan","District":"Thap Cham"}},{"type":"Point","coordinates":[105.80958,21.026988],"properties":{"Storecode":"264","Storename":"HNI - 933 La Thanh","Address":"933 Đê La Thành, P. Ngọc Khánh, Quận Ba Đình, TP. Hà Nội","Region":"North","Province":"Ha Noi","District":"Ba Dinh"}},{"type":"Point","coordinates":[105.80001,10.061201],"properties":{"Storecode":"266","Storename":"VLO - Nguyen Van Thanh","Address":"Đường Nguyễn Văn Thảnh, Tổ 24, Khóm 5, Phường Thành Phước, Thị Xã Bình Minh, Tỉnh Vĩnh Long","Region":"Mekong2","Province":"Vinh Long","District":"Binh Minh"}},{"type":"Point","coordinates":[105.376598,10.359929],"properties":{"Storecode":"267","Storename":"AGI - 126 Tran Phu","Address":"Số 126, đường Trần Phú, TT Phú Hòa,huyện Thoại Sơn ,tỉnh An Giang","Region":"Mekong2","Province":"An Giang","District":"Thoai Son"}},{"type":"Point","coordinates":[105.268842,9.168101],"properties":{"Storecode":"268","Storename":"CMA - 158 Quoc Lo 1A","Address":"158 , đường QL1A ,xã Tắc Vân, thành phố Cà Mau tỉnh Cà Mau","Region":"Mekong2","Province":"Ca Mau","District":"Ca Mau"}},{"type":"Point","coordinates":[105.969085,9.612052],"properties":{"Storecode":"269","Storename":"STR - 79-81 Hung Vuong","Address":"79-81, đường Hùng Vương, phường 6 , thành phố Sóc Trăng tỉnh Sóc Trăng","Region":"Mekong2","Province":"Soc Trang","District":"Soc Trang"}},{"type":"Point","coordinates":[106.734041,10.966817],"properties":{"Storecode":"270","Storename":"BDU - 1111B Ap Vinh Phuoc","Address":"1111B, ấp Vĩnh Phước tổ 11, xã Thái Hòa, Tân Uyên, Bình Dương","Region":"SouthEast2","Province":"Binh Duong","District":"Tan Uyen"}},{"type":"Point","coordinates":[106.812719,10.949916],"properties":{"Storecode":"271","Storename":"DON - 121A-123 CMT8","Address":"121A - 123 CMT8, TP. Biên Hoà, Tỉnh Đồng Nai.","Region":"SouthEast2","Province":"Dong Nai","District":"Bien Hoa"}},{"type":"Point","coordinates":[109.18626,12.304222],"properties":{"Storecode":"273","Storename":"KHO - 2E-2F Duong 2/4","Address":"2E-2F đường 2 tháng 4, phường Vĩnh Thạnh, Tp Nha Trang, Tỉnh Khánh Hoà","Region":"Central1","Province":"Khanh Hoa","District":"Nha Trang"}},{"type":"Point","coordinates":[106.60006,10.77973],"properties":{"Storecode":"275","Storename":"HCM - 406C Ma Lo","Address":"Số 406C Mã Lò, Khu phố 22, Phường Bình Hưng Hòa A, Quận Bình Tân, Thành phố Hồ Chí Minh","Region":"HCM","Province":"Ho Chi Minh","District":"Binh Tan"}},{"type":"Point","coordinates":[109.182216,12.249212],"properties":{"Storecode":"276","Storename":"KHO - 310-312 Thong Nhat","Address":"310 - 312 Thống Nhất, P. Phương Sơn, Tp. Nha Trang, Khánh Hòa","Region":"Central1","Province":"Khanh Hoa","District":"Nha Trang"}},{"type":"Point","coordinates":[106.606621,11.12567],"properties":{"Storecode":"278","Storename":"BDU - Duong D10","Address":"đường D10, phường Thới Hoà, thị xã Bến Cát, tỉnh Bình Dương","Region":"SouthEast2","Province":"Binh Duong","District":"Ben Cat"}},{"type":"Point","coordinates":[105.099237,9.982332],"properties":{"Storecode":"279","Storename":"KGI - 13-14 Lo L04 Tran Quang Khai","Address":"13 - 14, lô L04 , đường Trần Quang Khải, phường An Hoà, thành phố Rạch Giá, tỉnh Kiên Giang","Region":"Mekong2","Province":"Kien Giang","District":"Rach Gia"}},{"type":"Point","coordinates":[105.080443,10.016677],"properties":{"Storecode":"280","Storename":"KGI - 02 Tran Phu","Address":"Số 02 , đường Trần Phú, khu phố Lý Thường Kiệt, phường Vĩnh Thanh, thành phố Rạch Giá, Tỉnh Kiên Giang","Region":"Mekong2","Province":"Kien Giang","District":"Rach Gia"}},{"type":"Point","coordinates":[108.103934,10.940384],"properties":{"Storecode":"281","Storename":"BTH - 45 Tran Hung Dao","Address":"45 Trần Hưng Đạo, P. Phú Thuỷ, Tp. Phan Thiết.","Region":"Central1","Province":"Binh Thuan","District":"Phan Thiet"}},{"type":"Point","coordinates":[107.76805,10.66371],"properties":{"Storecode":"282","Storename":"BTH - 158 Thong Nhat","Address":"158 Thống Nhất, P. Tân Thiện, Thị xã Lagi, Bình Thuận.","Region":"Central1","Province":"Binh Thuan","District":"Lagi"}},{"type":"Point","coordinates":[108.005295,14.349765],"properties":{"Storecode":"283","Storename":"KTU - 263 Tran Hung Dao","Address":"263 Trần Hưng Đạo, P. Quyết Thắng, TP Kon Tum, Tỉnh Kon Tum","Region":"Highland3","Province":"Kon Tum","District":"KonTum"}},{"type":"Point","coordinates":[105.451252,10.879854],"properties":{"Storecode":"285","Storename":"ĐTH - 51 Nguyen Hue","Address":"51 Nguyễn Huệ, Thị Trấn Sa Rài, huyện Tân Hồng, tỉnh Đồng Tháp","Region":"Mekong2","Province":"Dong Thap","District":"Tan Hong"}},{"type":"Point","coordinates":[105.521061,10.357729],"properties":{"Storecode":"286","Storename":"ĐTH - 308 Duong 3/2","Address":"308 Đường 3/2, Khóm Bình Thạnh 1, Thị Trấn Lấp Vò, Huyện Lấp Vò, Tỉnh Đồng Tháp.","Region":"Mekong2","Province":"Dong Thap","District":"Lap Vo"}},{"type":"Point","coordinates":[107.135704,10.411198],"properties":{"Storecode":"287","Storename":"BVT - 1107-1109 Duong 30/4","Address":"1107 - 1109 đường 30/4, phường 11, TP Vũng Tàu, tỉnh Bà Rịa Vũng Tàu","Region":"SouthEast2","Province":"Ba Ria - Vung Tau","District":"Vung Tau"}},{"type":"Point","coordinates":[106.820292,10.733089],"properties":{"Storecode":"289","Storename":"DON - 2551 Ly Thai To","Address":"2551 đường Lý Thái Tổ, Ấp Phước Lý, xã Đại Phước, huyện Nhơn Trạch, Đồng Nai","Region":"SouthEast2","Province":"Dong Nai","District":"Nhon Trach"}},{"type":"Point","coordinates":[107.252856,10.933973],"properties":{"Storecode":"290","Storename":"DON - 194 Tran Phu","Address":"194 Trần Phú, P. Xuân An, Long Khánh, Đồng Nai","Region":"SouthEast2","Province":"Dong Nai","District":"Long Khanh"}},{"type":"Point","coordinates":[106.341206,9.933351],"properties":{"Storecode":"291","Storename":"TVI - 62 Dien Bien Phu","Address":"62 Điện Biên Phủ, Khóm 3, Phường 2, Thành phố Trà Vinh, Tỉnh Trà Vinh","Region":"Mekong2","Province":"Tra Vinh","District":"Tra Vinh"}},{"type":"Point","coordinates":[106.857199,11.425068],"properties":{"Storecode":"292","Storename":"BPH - 224 DT741","Address":"224 Đường DT 741 Ấp Chợ, Xã Tân Tiến, Huyện Đồng Phú, Tỉnh Bình Phước","Region":"SouthEast2","Province":"Binh Phuoc","District":"Dong Phu"}},{"type":"Point","coordinates":[107.1145,11.004833],"properties":{"Storecode":"296","Storename":"DON - 49F Duong 30/4","Address":"49F đường 30/4, thị trấn Trảng Bom, huyện Trảng Bom, tỉnh Đồng Nai","Region":"SouthEast2","Province":"Dong Nai","District":"Trang Bom"}},{"type":"Point","coordinates":[106.619605,10.87119],"properties":{"Storecode":"297","Storename":"HCM - 911A-911B Nguyen Anh Thu","Address":"911A – 911B đường Nguyễn Ảnh Thủ, P.Tân Chánh Hiệp, Quận 12, Tp.Hồ Chí Minh","Region":"HCM","Province":"Ho Chi Minh","District":"Quan 12"}},{"type":"Point","coordinates":[105.921499,20.158144],"properties":{"Storecode":"299","Storename":"NBI - 244 Quang Trung","Address":"244 Quang Trung, Phường Bắc Sơn, Thành phố Tam Điệp, Tỉnh Ninh Bình","Region":"North","Province":"Ninh Binh","District":"Tam Diep"}},{"type":"Point","coordinates":[106.75872,10.78842],"properties":{"Storecode":"300","Storename":"HCM - 121A Nguyen Duy Trinh","Address":"121A Nguyễn Duy Trinh, KP1, P. Bình Trưng Tây, Thành phố Thủ Đức, Thành phố Hồ Chí Minh","Region":"HCM","Province":"Ho Chi Minh","District":"Thu Duc"}},{"type":"Point","coordinates":[106.665093,10.600696],"properties":{"Storecode":"301","Storename":"LAN - 01 Quoc Lo 50","Address":"Số 1- 3 Quốc lộ 50, Ấp Hoà Thuận 1,Xã Trường Bình, Huyện Cần Giuộc, Tỉnh Long An,Việt Nam","Region":"Mekong1","Province":"Long An","District":"Can Giuoc"}},{"type":"Point","coordinates":[105.722399,9.287622],"properties":{"Storecode":"302","Storename":"BLI - 24-26 Tran Phu","Address":"số 24-26, đường Trần Phú, Phường 3, TP bạc Liêu, Tỉnh Bạc Liêu.","Region":"Mekong2","Province":"Bac Lieu","District":"Bac Lieu"}},{"type":"Point","coordinates":[105.630837,10.45135],"properties":{"Storecode":"305","Storename":"ĐTH - 76 Pham Huu Lau","Address":"Số 76, đường Phạm Hữu Lầu, phường 4, TP Cao Lãnh, Tỉnh Đồng Tháp","Region":"Mekong2","Province":"Dong Thap","District":"Cao Lanh"}},{"type":"Point","coordinates":[105.84348,10.518361],"properties":{"Storecode":"306","Storename":"ĐTH - 131 Hung Vuong","Address":"131 Hùng Vương, Thị Trấn Mỹ An, Tỉnh Đồng Tháp","Region":"Mekong2","Province":"Dong Thap","District":"Thap Muoi"}},{"type":"Point","coordinates":[107.238091,11.811711],"properties":{"Storecode":"307","Storename":"BPH - Quoc Lo 14","Address":"QL14, Thị trấn Đức Phong, huyện Bù Đăng, Bình Phước","Region":"SouthEast2","Province":"Binh Phuoc","District":"Bu Dang"}},{"type":"Point","coordinates":[106.570998,10.862604],"properties":{"Storecode":"309","Storename":"HCM - 39 Phan Van Hon","Address":"39 Phan Văn Hớn, Ấp 4, Xuân Thới Thượng, Hóc Môn, TPHCM","Region":"HCM","Province":"Ho Chi Minh","District":"Hoc Mon"}},{"type":"Point","coordinates":[106.467849,10.446994],"properties":{"Storecode":"312","Storename":"LAN - 216 Do Tuong Phong","Address":"216 Đỗ Tường Phong, Khóm 1, Thị Trấn Tầm Vu, H. Châu Thành, Long An","Region":"Mekong1","Province":"Long An","District":"Chau Thanh"}},{"type":"Point","coordinates":[105.937248,10.778646],"properties":{"Storecode":"313","Storename":"LAN - 10 Phan Chu Trinh","Address":"Số 10 Phan Chu Trinh, Khu phố 1, Phường 1, Thị Xã Kiến Tường, Tỉnh Long An","Region":"Mekong1","Province":"Long An","District":"Kien Tuong"}},{"type":"Point","coordinates":[106.986181,10.948101],"properties":{"Storecode":"315","Storename":"DON - 1435 Quoc Lo 1A","Address":"1435 QL 1A, Ấp Trà Cổ, H. Trảng Bom, Đồng Nai","Region":"SouthEast2","Province":"Dong Nai","District":"Trang Bom"}},{"type":"Point","coordinates":[106.6655,10.838767],"properties":{"Storecode":"318","Storename":"HCM - 3/1A Nguyen Van Luong","Address":"3/1A Nguyễn Văn Lượng, phường 16 quận Gò vấp, tp Hcm","Region":"HCM","Province":"Ho Chi Minh","District":"Go Vap"}},{"type":"Point","coordinates":[105.949425,21.197889],"properties":{"Storecode":"319","Storename":"BNI - 30-32 Pho Cho","Address":"30-32 Phố Chờ thị trấn Chờ, huyện Yên Phong, tỉnh Bắc Ninh.","Region":"North","Province":"Bac Ninh","District":"Yen Phong"}},{"type":"Point","coordinates":[107.343492,11.193765],"properties":{"Storecode":"320","Storename":"DON - 22 Ap 114","Address":"Số 22, ấp 114, thị trấn Định Quán, huyện Định Quán, tỉnh Đồng Nai","Region":"SouthEast2","Province":"Dong Nai","District":"Dinh Quan"}},{"type":"Point","coordinates":[106.5954,10.872286],"properties":{"Storecode":"321","Storename":"HCM - 158 Quoc Lo 22","Address":"158 Quốc Lộ 22, Ấp Đình, Xã Tân Phú Trung, Củ Chi, TPHCM","Region":"HCM","Province":"Ho Chi Minh","District":"Cu Chi"}},{"type":"Point","coordinates":[107.774105,10.664182],"properties":{"Storecode":"322","Storename":"BTH - 12 Co Giang","Address":"12, đường Cô Giang, phường Phước Hội, thị xã La Gi, tỉnh Bình Thuận","Region":"Central1","Province":"Binh Thuan","District":"Lagi"}},{"type":"Point","coordinates":[106.728477,10.751381],"properties":{"Storecode":"323","Storename":"HCM - 304-306 Huynh Tan Phat","Address":"304-306 Huỳnh Tấn Phát, Phường Tân Thuận Tây, Quận 7, TPHCM","Region":"HCM","Province":"Ho Chi Minh","District":"Quan 7"}},{"type":"Point","coordinates":[106.703585,10.741088],"properties":{"Storecode":"324","Storename":"HCM - 326 Le Van Luong","Address":"326 Lê Văn Lương, Phường Tân Hưng, Quận 7, TPHCM.","Region":"HCM","Province":"Ho Chi Minh","District":"Quan 7"}},{"type":"Point","coordinates":[107.032415,10.668893],"properties":{"Storecode":"326","Storename":"BVT - 2181 Quoc Lo 51","Address":"2181-2183 Quốc lộ 51, thôn Tân Phú, thị trấn Phú Mỹ, huyện Tân Thành, tỉnh Bà Rịa - Vũng Tàu.","Region":"SouthEast2","Province":"Ba Ria - Vung Tau","District":"Tan Thanh"}},{"type":"Point","coordinates":[106.636312,10.780542],"properties":{"Storecode":"328","Storename":"HCM - 484 Luy Ban Bich","Address":"484 Lũy Bán Bích, phường Hòa Thạnh, quận Tân Phú","Region":"HCM","Province":"Ho Chi Minh","District":"Tan Phu"}},{"type":"Point","coordinates":[106.928083,10.853509],"properties":{"Storecode":"329","Storename":"DON - 296-297 Quoc Lo 51","Address":"296 - 297 Quốc Lộ 51, KP Long Khánh 3, Phường Tam Phước, Thành phố Biên Hòa, Tỉnh Đồng Nai","Region":"SouthEast2","Province":"Dong Nai","District":"Bien Hoa"}},{"type":"Point","coordinates":[106.364925,10.364953],"properties":{"Storecode":"330","Storename":"TGI - 68 Hung Vuong","Address":"68 Hùng Vương, TP Mỹ Tho, Tiền Giang.","Region":"Mekong1","Province":"Tien Giang","District":"My Tho"}},{"type":"Point","coordinates":[106.886507,10.914144],"properties":{"Storecode":"331","Storename":"DON - 845 Bui Van Hoa","Address":"845 đường Bùi Văn Hòa khu phố 7, phường Long Bình, TP. Biên Hòa, Đồng Nai","Region":"SouthEast2","Province":"Dong Nai","District":"Bien Hoa"}},{"type":"Point","coordinates":[108.718518,11.217201],"properties":{"Storecode":"332","Storename":"BTH - Khu Dan Cu A2","Address":"Khu dân cư A2, Thị Trấn Liên Hương, Huyện Tuy Phong, Tỉnh Bình Thuận.","Region":"Central1","Province":"Binh Thuan","District":"Tuy Phong"}},{"type":"Point","coordinates":[107.086443,16.817461],"properties":{"Storecode":"333","Storename":"QTR - 84 Quoc Lo 9","Address":"84, Quốc lộ 9, Khu phố 7, Phường 1, TP. Đông Hà, Tỉnh Quảng Trị.","Region":"Central3","Province":"Quang Tri","District":"Dong Ha"}},{"type":"Point","coordinates":[109.303022,13.090217],"properties":{"Storecode":"334","Storename":"PYN - 60 Nguyen Thai Hoc","Address":"60 Nguyễn Thái Học, p5, tp Tuy Hòa, Phú Yên","Region":"Central2","Province":"Phu Yen","District":"Tuy Hoa"}},{"type":"Point","coordinates":[108.325438,15.884261],"properties":{"Storecode":"335","Storename":"QNA - 550 Hai Ba Trung","Address":"550 Hai Bà Trưng, Phường Cẩm Phô, Thành phố Hội An, Tỉnh Quảng Nam.","Region":"Central2","Province":"Quang Nam","District":"Hoi An"}},{"type":"Point","coordinates":[105.090782,9.99909],"properties":{"Storecode":"336","Storename":"KGI - 318-320 Nguyen Trung Truc","Address":"318-320 Nguyễn Trung Trực , phường Vĩnh Lạc, tp Rạch Giá, Tỉnh Kiên Giang","Region":"Mekong2","Province":"Kien Giang","District":"Rach Gia"}},{"type":"Point","coordinates":[106.620894,10.833786],"properties":{"Storecode":"341","Storename":"HCM - 6C-10Bis Truong Chinh","Address":"6C-10bis Trường Chinh, Tân Hưng Thuận, Q12","Region":"HCM","Province":"Ho Chi Minh","District":"Quan 12"}},{"type":"Point","coordinates":[109.18195,12.244338],"properties":{"Storecode":"342","Storename":"KHO - 70 Le Hong Phong","Address":"70 đường Lê Hồng Phong , phường Phước Hải, thành phố Nha Trang, Khánh Hòa","Region":"Central1","Province":"Khanh Hoa","District":"Nha Trang"}},{"type":"Point","coordinates":[106.576291,10.66241],"properties":{"Storecode":"344","Storename":"HCM - D12/37 Dinh Duc Thien","Address":"D12/37 đường Đinh Đức Thiện, ấp 4, xã Bình Chánh, huyện Bình Chánh, TPHCM","Region":"HCM","Province":"Ho Chi Minh","District":"Binh Chanh"}},{"type":"Point","coordinates":[108.204506,16.016654],"properties":{"Storecode":"345","Storename":"DNA - 42 Ong Ich Duong","Address":"42 , đường Ông Ích Đường , phường Hòa Thọ Đông, quận Cẩm Lệ, thành phố Đà Nẵng","Region":"Central2","Province":"Da Nang","District":"Cam Le"}},{"type":"Point","coordinates":[107.028012,10.677401],"properties":{"Storecode":"346","Storename":"DON - 1912 Quoc Lo 51","Address":"1912 Quốc lộ 51, tổ 1, Ấp 1C, Phước Thái, Long Thành, Đồng Nai","Region":"SouthEast2","Province":"Dong Nai","District":"Long Thanh"}},{"type":"Point","coordinates":[106.752041,10.679043],"properties":{"Storecode":"347","Storename":"HCM - 12/12 Nguyen Binh","Address":"12/12 Nguyễn Bình, Nhà Bè, Tp Hcm","Region":"HCM","Province":"Ho Chi Minh","District":"Nha Be"}},{"type":"Point","coordinates":[104.483181,10.37877],"properties":{"Storecode":"348","Storename":"KGI - 178-180 Mac Thien Tich","Address":"178-180 Mạc Thiên Tích, P. Pháo Đài, Tx Hà Tiên, Tỉnh Kiên Giang","Region":"Mekong2","Province":"Kien Giang","District":"Ha Tien"}},{"type":"Point","coordinates":[106.59424,10.696216],"properties":{"Storecode":"349","Storename":"HCM - E9/9 Nguyen Huu Tri","Address":"E9/9 Nguyễn Hữu Trí, khu phố 5, Tân Túc, Bình Chánh, TPHCM","Region":"HCM","Province":"Ho Chi Minh","District":"Binh Chanh"}},{"type":"Point","coordinates":[106.600711,10.638289],"properties":{"Storecode":"350","Storename":"TGI - Ap Long Thanh","Address":"Ấp Long Thạnh, xã Long Bình Điền, Huyện Chợ Gạo, Tiền Giang","Region":"Mekong1","Province":"Tien Giang","District":"Cho Gao"}},{"type":"Point","coordinates":[109.100836,12.257246],"properties":{"Storecode":"351","Storename":"KHO - 08 Phan Boi Chau","Address":"08 Phan Bội Châu, tổ DP Phan Bội Châu 2, thị trấn Diên Khánh, huyện Diên Khánh, Khánh Hòa","Region":"Central1","Province":"Khanh Hoa","District":"Dien Khanh"}},{"type":"Point","coordinates":[109.213799,13.763825],"properties":{"Storecode":"353","Storename":"BDI - 394 Nguyen Thai Hoc","Address":"394 Nguyễn Thái Học, phường Quang Trung, thành phố Quy Nhơn, tỉnh Bình Định","Region":"Central2","Province":"Binh Dinh","District":"Qui Nhon"}},{"type":"Point","coordinates":[108.260669,15.819687],"properties":{"Storecode":"354","Storename":"QNA - 179 Dien Bien Phu","Address":"179 Điện Biên Phủ, Khối phố Long Xuyên 1, Thị Trấn Nam Phước, Huyện Duy Xuyên, Tỉnh Quảng Nam","Region":"Central2","Province":"Quang Nam","District":"Duy Xuyen"}},{"type":"Point","coordinates":[107.011524,10.956221],"properties":{"Storecode":"356","Storename":"DON - 32A Hung Vuong","Address":"Số 32A đường Hùng Vương, Khu phố 2, Thị trấn Trảng Bom, huyện Trảng Bom, tỉnh Đồng Nai","Region":"SouthEast2","Province":"Dong Nai","District":"Trang Bom"}},{"type":"Point","coordinates":[108.077256,13.694521],"properties":{"Storecode":"357","Storename":"GLA - 807D Hung Vuong","Address":"807D Đường Hùng Vương, Tổ dân phố 7, Thị Trấn Chư Sê, Huyện Chư Sê, Tỉnh Gia Lai","Region":"Highland3","Province":"Gia Lai","District":"Chu Se"}},{"type":"Point","coordinates":[108.008398,13.983509],"properties":{"Storecode":"358","Storename":"GLA - 18-20 Nguyen Tat Thanh","Address":"18-20 Nguyễn Tất Thành, phường Hoa Lư, thành phố Pleiku, tỉnh Gia Lai","Region":"Highland3","Province":"Gia Lai","District":"Pleiku"}},{"type":"Point","coordinates":[105.426351,10.393173],"properties":{"Storecode":"359","Storename":"AGI - 956-958 Tran Hung Dao","Address":"956-958 Trần Hưng Đạo, khóm Bình Khánh 2, P.Bình Khánh, Tp.Long Xuyên, An Giang.","Region":"Mekong2","Province":"An Giang","District":"Long Xuyen"}},{"type":"Point","coordinates":[105.126511,10.707173],"properties":{"Storecode":"360","Storename":"AGI - Le Loi","Address":"Lê Lợi, P.Châu Phú B, Tp.Châu Đốc, An Giang.","Region":"Mekong2","Province":"An Giang","District":"Chau Doc"}},{"type":"Point","coordinates":[106.651425,10.664823],"properties":{"Storecode":"361","Storename":"HCM - B6/190 Quoc Lo 50","Address":"B6/190 QL50, Ấp 2, xã Phong Phú, huyện Bình Chánh, TPHCM","Region":"HCM","Province":"Ho Chi Minh","District":"Binh Chanh"}},{"type":"Point","coordinates":[106.638361,10.794687],"properties":{"Storecode":"362","Storename":"HCM - 827 Au Co","Address":"827 Âu Cơ, phường Tân Thành, quận Tân Phú, TPHCM","Region":"HCM","Province":"Ho Chi Minh","District":"Tan Phu"}},{"type":"Point","coordinates":[106.688942,10.963802],"properties":{"Storecode":"363","Storename":"BDU - 272 Dai Lo Binh Duong","Address":"272 tổ 3 khu 2, Đại Lộ Bình Dương, phường Phú Hòa, TP. Thủ Dầu Một, Tỉnh Bình Dương.","Region":"SouthEast2","Province":"Binh Duong","District":"Thu Dau Mot"}},{"type":"Point","coordinates":[106.606163,10.947261],"properties":{"Storecode":"365","Storename":"HCM - 266A Tinh Lo 15","Address":"266A Tỉnh Lộ 15, tổ 5, ấp 11, xã Tân Thạnh Đông, Củ Chi, TPHCM","Region":"HCM","Province":"Ho Chi Minh","District":"Cu Chi"}},{"type":"Point","coordinates":[107.800056,11.541267],"properties":{"Storecode":"366","Storename":"LDO - 861-863 Tran Phu","Address":"861-863 Trần Phú, Tp Bảo Lộc, Lâm Đồng","Region":"Highland1","Province":"Lam Dong","District":"Bao Loc"}},{"type":"Point","coordinates":[108.247642,11.787209],"properties":{"Storecode":"367","Storename":"LDO - 796-798 Hung Vuong","Address":"796-798 Hùng Vương, thị trấn Đinh Văn, huyện Lâm Hà, tỉnh Lâm Đồng","Region":"Highland1","Province":"Lam Dong","District":"Lam Ha"}},{"type":"Point","coordinates":[108.206524,13.202883],"properties":{"Storecode":"368","Storename":"DLK - 514 Giai Phong","Address":"514 đường Giải Phóng, thị trấn Ea Drăng, huyện Ea Hleo, tỉnh Đắk Lắk","Region":"Highland2","Province":"Dak Lak","District":"Ea H'leo"}},{"type":"Point","coordinates":[105.163575,9.184987],"properties":{"Storecode":"369","Storename":"CMA - 68 Tran Hung Dao","Address":"68 Trần Hưng Đạo, khóm 7, phường 5, tp Cà Mau","Region":"Mekong2","Province":"Ca Mau","District":"Ca Mau"}},{"type":"Point","coordinates":[105.295558,9.898484],"properties":{"Storecode":"370","Storename":"KGI - DT 933","Address":"DT 933, khu phố 6, Thị Trấn Giồng Riềng, Huyện Giồng Riềng, Tỉnh Kiên Giang .","Region":"Mekong2","Province":"Kien Giang","District":"Giong Rieng"}},{"type":"Point","coordinates":[106.828612,10.842933],"properties":{"Storecode":"371","Storename":"HCM - 657 Nguyen Xien","Address":"657 Nguyễn Xiển, Phường Long Thạnh Mỹ, Thành phố Thủ Đức, Thành phố Hồ Chí Minh","Region":"HCM","Province":"Ho Chi Minh","District":"Thu Duc"}},{"type":"Point","coordinates":[106.613258,10.769801],"properties":{"Storecode":"372","Storename":"HCM - 564A Huong Lo 2","Address":"564A Hương Lộ 2, KP6, P.Bình Trị Đông, Bình Tân","Region":"HCM","Province":"Ho Chi Minh","District":"Binh Tan"}},{"type":"Point","coordinates":[106.343273,10.450116],"properties":{"Storecode":"373","Storename":"TGI - 2/4 Quốc Lộ 1A","Address":"2/4 Quốc Lộ 1A, Ấp Rẫy, Thị Trấn Tân Hiệp, Huyện Châu Thành, Tỉnh Tiền Giang","Region":"Mekong1","Province":"Tien Giang","District":"Chau Thanh"}},{"type":"Point","coordinates":[106.6023,10.685375],"properties":{"Storecode":"374","Storename":"HCM - 326A/13 An Phu Tay","Address":"326A/13 An Phú Tây - Hưng Long, ấp 1, xã An Phú Tây, huyện Bình Chánh, TPHCM","Region":"HCM","Province":"Ho Chi Minh","District":"Binh Chanh"}},{"type":"Point","coordinates":[105.198678,8.997896],"properties":{"Storecode":"375","Storename":"CMA - Duong Thi Cam Van","Address":"Dương Thị Cẩm Vân, Khóm 4, Thị trấn Đầm Dơi, Huyện Đầm Dơi, Tỉnh Cà Mau.","Region":"Mekong2","Province":"Ca Mau","District":"Dam Doi"}},{"type":"Point","coordinates":[106.343227,10.350494],"properties":{"Storecode":"376","Storename":"TGI - 57/8 Le Thi Hong Gam","Address":"57/8 đường Lê Thị Hồng Gấm, phường 6, thành phố Mỹ Tho, tỉnh Tiền Giang.","Region":"Mekong1","Province":"Tien Giang","District":"My Tho"}},{"type":"Point","coordinates":[106.181756,10.657618],"properties":{"Storecode":"377","Storename":"LAN - 11 Nguyen Trung Truc","Address":"11 Nguyễn Trung Trực, thị trấn Thạnh Hóa, Huyện Thạnh Hóa, Tỉnh Long An.","Region":"Mekong1","Province":"Long An","District":"Thanh Hoa"}},{"type":"Point","coordinates":[109.15636,12.256175],"properties":{"Storecode":"378","Storename":"KHO - Lo 06-07 Duong 23/10","Address":"Lô 06-07 Đường 23/10, thôn Vĩnh Điềm Trung, xã Vĩnh Hiệp, Tp. Nha Trang, Tỉnh Khánh Hòa","Region":"Central1","Province":"Khanh Hoa","District":"Nha Trang"}},{"type":"Point","coordinates":[105.70813,10.100404],"properties":{"Storecode":"379","Storename":"CTO - 8/8 Le Hong Phong","Address":"8/8 Lê Hồng Phong, P.Trà Nóc, Q.Bình Thuỷ, TP Cần Thơ","Region":"Mekong2","Province":"Can Tho","District":"Binh Thuy"}},{"type":"Point","coordinates":[106.416997,10.530848],"properties":{"Storecode":"381","Storename":"LAN - 450 Hung Vuong","Address":"450 Hùng Vương, phường 3, TP Tân An, Tỉnh Long An","Region":"Mekong1","Province":"Long An","District":"Tan An"}},{"type":"Point","coordinates":[106.391272,10.304562],"properties":{"Storecode":"382","Storename":"BTR - 376 DT883","Address":"376 DT883, ấp Quới Hòa Đông, xã Quới Sơn, huyện Châu Thành, tỉnh Bến Tre.","Region":"Mekong1","Province":"Ben Tre","District":"Chau Thanh"}},{"type":"Point","coordinates":[106.583652,10.88855],"properties":{"Storecode":"383","Storename":"HCM - 66/7 Quoc Lo 22","Address":"66/7 QL22, Ấp Dân Thắng 1, xã Tân Thới Nhì, Hóc Môn, Tp Hcm","Region":"HCM","Province":"Ho Chi Minh","District":"Hoc Mon"}},{"type":"Point","coordinates":[107.511536,11.995132],"properties":{"Storecode":"384","Storename":"DNK - 45 Nguyen Tat Thanh","Address":"45 Nguyễn Tất Thành, TT. Kiến Đức, H. Đăk Rlấp, Đăk Nông","Region":"Highland2","Province":"Dak Nong","District":"Dak R'lap"}},{"type":"Point","coordinates":[106.535298,10.637672],"properties":{"Storecode":"385","Storename":"LAN - 277-278 ĐT835","Address":"277-278 ĐT835 ấp 4 , xã Phước Lợi, huyện Bến Lức ,tỉnh Long An.","Region":"Mekong1","Province":"Long An","District":"Ben Luc"}},{"type":"Point","coordinates":[105.144377,9.165632],"properties":{"Storecode":"386","Storename":"CMA - 141B Nguyen Tat Thanh","Address":"141B Nguyễn Tất Thành, Khóm 1, Phường 8, TP Cà Mau","Region":"Mekong2","Province":"Ca Mau","District":"Ca Mau"}},{"type":"Point","coordinates":[106.324204,11.121267],"properties":{"Storecode":"387","Storename":"TNI - 308 Tinh Lo 782","Address":"308 Tỉnh Lộ 782, tổ 4, ấp Phước Đức, xã Phước Đông, huyện Gò Dầu, tỉnh Tây Ninh","Region":"SouthEast1","Province":"Tay Ninh","District":"Go Dau"}},{"type":"Point","coordinates":[106.671233,10.846027],"properties":{"Storecode":"389","Storename":"HCM - 668 Le Duc Tho","Address":"668 Lê Đức Thọ, P.15, Q.Gò Vấp, thành phố HCM","Region":"HCM","Province":"Ho Chi Minh","District":"Go Vap"}},{"type":"Point","coordinates":[108.793615,15.122039],"properties":{"Storecode":"390","Storename":"QNG - 169 Hung Vuong","Address":"169 Hùng Vương, Phường Trần Phú, Thành phố Quảng Ngãi, Tỉnh Quảng Ngãi","Region":"Central2","Province":"Quang Ngai","District":"Quang Ngai"}},{"type":"Point","coordinates":[108.802288,15.120629],"properties":{"Storecode":"391","Storename":"QNG - 386 Nguyen Nghiem","Address":"386 Nguyễn Nghiêm, Phường Nguyễn Nghiêm, Tp Quảng Ngãi, Tỉnh Quảng Ngãi","Region":"Central2","Province":"Quang Ngai","District":"Quang Ngai"}},{"type":"Point","coordinates":[107.071979,10.942521],"properties":{"Storecode":"392","Storename":"DON - 63 Quoc Lo 1A","Address":"63 QL1A ấp Hòa Bình, Xã Đông Hòa, Huyện Trảng Bom, tỉnh Đồng Nai","Region":"SouthEast2","Province":"Dong nai","District":"Trang Bom"}},{"type":"Point","coordinates":[107.277834,10.46004],"properties":{"Storecode":"393","Storename":"BVT - C50 Tinh Lo 44A","Address":"C50 Tỉnh Lộ 44A, Ấp Phước Lộc, Xã Phước Hưng, Huyện Long Điền, Tỉnh Bà Rịa – Vũng Tàu.","Region":"SouthEast2","Province":"Ba Ria - Vung Tau","District":"Long Dien"}},{"type":"Point","coordinates":[107.402236,10.925406],"properties":{"Storecode":"394","Storename":"DON - 240 Hung Vuong","Address":"240 đường Hùng Vương, khu phố 5, thị trấn Gia Ray, huyện Xuân Lộc, tỉnh Đồng Nai.","Region":"SouthEast2","Province":"Dong Nai","District":"Xuan Loc"}},{"type":"Point","coordinates":[106.856404,10.946604],"properties":{"Storecode":"395","Storename":"DON - 633 Pham Van Thuan","Address":"633 đường Phạm Văn Thuận, xã Tam Hiệp, Tp Biên Hòa, Tỉnh Đồng Nai","Region":"SouthEast2","Province":"Dong nai","District":"Bien Hoa"}},{"type":"Point","coordinates":[105.10948,10.717175],"properties":{"Storecode":"396","Storename":"AGI - 5-5A-7 Nguyen Tri Phuong","Address":"5-5A-7 Nguyễn Tri Phương, Tổ 10, Khóm Hoà Bình, Phường Vĩnh Mỹ, TP Châu Đốc, Tỉnh An Giang","Region":"Mekong2","Province":"An Giang","District":"Chau Doc"}},{"type":"Point","coordinates":[107.6842,12.0042],"properties":{"Storecode":"397","Storename":"DNK - 17-19-21 Huynh Thuc Khang","Address":"17, 19, 21 đường Huỳnh Thúc Kháng, thị xã Gia Nghĩa, Tỉnh Đăk Nông.","Region":"Highland2","Province":"Dak Nong","District":"Gia Nghia"}},{"type":"Point","coordinates":[107.064547,10.559071],"properties":{"Storecode":"399","Storename":"BVT - Quoc Lo 51","Address":"Quốc Lộ 51, Khu phố Ông Trịnh, Phường Tân Phước, Thị Xã Phú Mỹ, Tỉnh Bà Rịa - Vũng Tàu","Region":"SouthEast2","Province":"Ba Ria - Vung Tau","District":"Tan Thanh"}},{"type":"Point","coordinates":[107.00593,10.709755],"properties":{"Storecode":"401","Storename":"DON - 1324 Quoc Lo 51","Address":"1324 Quốc lộ 51, ấp Phước Hòa, xã Long Phước, huyện Long Thành, tỉnh Đồng Nai.","Region":"SouthEast2","Province":"Dong Nai","District":"Long Thanh"}},{"type":"Point","coordinates":[105.98034,9.323505],"properties":{"Storecode":"402","Storename":"STR - 39-41 Nguyen Hue","Address":"39-41 Nguyễn Huệ, Khóm 1, Phường 1, Thị xã Vĩnh Châu, Tỉnh Sóc Trăng.","Region":"Mekong2","Province":"Soc Trang","District":"Vinh Chau"}},{"type":"Point","coordinates":[105.159076,9.904999],"properties":{"Storecode":"403","Storename":"KGI - 709 Quoc Lo 61","Address":"709 QL61, Khu Phố Minh An, Thị trấn Minh Lương, Huyện Châu Thành, Tỉnh Kiên Giang.","Region":"Mekong2","Province":"Kien Giang","District":"Chau Thanh"}},{"type":"Point","coordinates":[109.191965,11.987572],"properties":{"Storecode":"405","Storename":"KHO - 288 Dai Lo Hung Vuong","Address":"288 Đại Lộ Hùng Vương, tổ dân phố Hòa Thuận, Phường Cam Nghĩa, Thành phố Cam Ranh, Tỉnh Khánh Hoà","Region":"Central1","Province":"Khanh Hoa","District":"Cam Ranh"}},{"type":"Point","coordinates":[105.400264,10.54842],"properties":{"Storecode":"406","Storename":"AGI - Nguyen Huu Canh","Address":"Nguyễn Hữu Cảnh, Ấp Long Hòa, Thị Trấn Chợ Mới, Huyện Chợ Mới, Tỉnh An Giang","Region":"Mekong2","Province":"An Giang","District":"Cho Moi"}},{"type":"Point","coordinates":[105.121377,9.954337],"properties":{"Storecode":"407","Storename":"KGI - 31 Mai Thi Hong Hanh","Address":"31 Mai Thị Hồng Hạnh, Khu Phố 1, Phường Vĩnh Lợi, TP Rạch Giá, Tỉnh Kiên Giang.","Region":"Mekong2","Province":"Kien Giang","District":"Rach Gia"}},{"type":"Point","coordinates":[108.006212,13.97673],"properties":{"Storecode":"408","Storename":"GLA - 06 Le Loi","Address":"06 Lê Lợi, P. Hội Thương, Tp. Pleiku, Gia Lai","Region":"Highland3","Province":"Gia Lai","District":"Pleiku"}},{"type":"Point","coordinates":[105.774123,10.032609],"properties":{"Storecode":"409","Storename":"CTO - 1A Mau Than","Address":"1A Mậu Thân, Phường Xuân Khánh, Quận Ninh Kiều, Thành phố Cần Thơ","Region":"Mekong2","Province":"Can Tho","District":"Ninh Kieu"}},{"type":"Point","coordinates":[105.893122,18.341034],"properties":{"Storecode":"410","Storename":"HTI - 53-55 Tran Phu","Address":"53-55, đường Trần Phú , phường Trần Phú, thành phố Hà Tĩnh, tỉnh Hà Tĩnh","Region":"North","Province":"Ha Tinh","District":"Ha Tinh"}},{"type":"Point","coordinates":[106.950563,11.810147],"properties":{"Storecode":"411","Storename":"BPH - 168 Duong DT 741","Address":"168 đường DT741, xã Phú Riềng, H Phú Riềng, Bình Phước","Region":"SouthEast2","Province":"Binh Phuoc","District":"Phu Rieng"}},{"type":"Point","coordinates":[108.805806,15.118954],"properties":{"Storecode":"413","Storename":"QNG - 558 Quang Trung","Address":"558 Quang Trung, Phường Nguyễn Nghiêm, TP. Quảng Ngãi, Tỉnh Quảng Ngãi","Region":"Central2","Province":"Quang Ngai","District":"Quang Ngai"}},{"type":"Point","coordinates":[106.608339,10.832752],"properties":{"Storecode":"415","Storename":"HCM - 17/15A Khu pho 6","Address":"17/15 Đường Phan Văn Hớn, Khu phố 6A, Phường Tân Thới Nhất, Quận 12, Thành phố Hồ Chí Minh","Region":"HCM","Province":"Ho Chi Minh","District":"Quan 12"}},{"type":"Point","coordinates":[108.243941,15.894933],"properties":{"Storecode":"416","Storename":"QNA - Tran Quy Cap","Address":"Trần Qúy Cáp (QL1A cũ), khu phố chợ Vĩnh Điện, Phường Vĩnh Điện , Thị xã Điện Bàn, Tỉnh Quảng Nam","Region":"Central2","Province":"Quang Nam","District":"Dien Ban"}},{"type":"Point","coordinates":[108.302509,12.710524],"properties":{"Storecode":"417","Storename":"DLK - 294-296 Giai Phong","Address":"294-296 Giải Phóng, thị trấn Phước An, huyện Krông Pắc, tinh Đắc Lắc","Region":"Highland2","Province":"Dak Lak","District":"Krong Pac"}},{"type":"Point","coordinates":[106.728878,10.882089],"properties":{"Storecode":"418","Storename":"HCM - 1069 Tinh Lo 43","Address":"1069 Tỉnh Lộ 43, Khu Phố 2, Phường Bình Chiểu, Thành phố Thủ Đức, Thành phố Hồ Chí Minh","Region":"HCM","Province":"Ho Chi Minh","District":"Thu Duc"}},{"type":"Point","coordinates":[105.970585,9.595399],"properties":{"Storecode":"419","Storename":"STR - 167 Tran Hung Dao","Address":"167 Trần Hưng Đạo, Phường 03, TP Sóc Trăng, Tỉnh Sóc Trăng.","Region":"Mekong2","Province":"Soc Trang","District":"Soc Trang"}},{"type":"Point","coordinates":[106.701123,10.90758],"properties":{"Storecode":"421","Storename":"BDU - 60 Nguyen Van Tiet","Address":"60 Nguyễn Văn Tiết, Phường Lái Thiêu, Thành phố Thuận An, Tỉnh Bình Dương.","Region":"SouthEast2","Province":"Binh Duong","District":"Thuan An"}},{"type":"Point","coordinates":[106.648461,10.745925],"properties":{"Storecode":"422","Storename":"HCM - 107 Mai Xuan Thuong","Address":"107 Mai Xuân Thưởng, Phường 4, Quận 6, TPHCM","Region":"HCM","Province":"Ho Chi Minh","District":"Quan 6"}},{"type":"Point","coordinates":[106.672504,10.743698],"properties":{"Storecode":"423","Storename":"HCM - 871 Pham The Hien","Address":"871 Phạm Thế Hiển, Phường 4, Quận 8, TP.HCM","Region":"HCM","Province":"Ho Chi Minh","District":"Quan 8"}},{"type":"Point","coordinates":[106.716011,10.744748],"properties":{"Storecode":"424","Storename":"HCM - 175 Lam Van Ben","Address":"175 Lâm Văn Bền, Khu phố 6, Phường Bình Thuận, Quận 7, Thành phố Hồ Chí Minh","Region":"HCM","Province":"Ho Chi Minh","District":"Quan 7"}},{"type":"Point","coordinates":[106.657276,10.843006],"properties":{"Storecode":"428","Storename":"HCM - 204-206 Le Van Tho","Address":"204-206 Lê Văn Thọ, Phường 11, Quận Gò Vấp","Region":"HCM","Province":"Ho Chi Minh","District":"Go Vap"}},{"type":"Point","coordinates":[106.604201,10.75219],"properties":{"Storecode":"429","Storename":"HCM - 2 Duong So 40","Address":"Số 2, Đường số 40, Khu phố 8, Phường Tân Tạo, Quận Bình Tân, Thành phố Hồ Chí Minh","Region":"HCM","Province":"Ho Chi Minh","District":"Binh Tan"}},{"type":"Point","coordinates":[106.744193,10.861999],"properties":{"Storecode":"430","Storename":"HCM - 478 To Ngoc Van","Address":"487 Tô Ngọc Vân , Khu Phố 1, Phường Tam Phú, Thành phố Thủ Đức, Thành phố Hồ Chí Minh","Region":"HCM","Province":"Ho Chi Minh","District":"Thu Duc"}},{"type":"Point","coordinates":[106.489755,10.970584],"properties":{"Storecode":"431","Storename":"HCM - 47 Tinh Lo 8","Address":"47 Tỉnh lộ 8, Thị trấn Củ Chi, Huyện Củ Chi, Thành phố Hồ Chí Minh","Region":"HCM","Province":"Ho Chi Minh","District":"Cu Chi"}},{"type":"Point","coordinates":[106.617959,10.801338],"properties":{"Storecode":"437","Storename":"HCM - Aeon Mall Tan Phu","Address":"S12, Tầng 2, Trung tâm thương mua sắm Aeon Mall - Tân Phú Celadon, 30 Bờ Bao Tân Thắng, Phường Sơn Kỳ, Quận Tân Phú, Thành phố Hồ Chí Minh","Region":"HCM","Province":"Ho Chi Minh","District":"Tan Phu"}},{"type":"Point","coordinates":[106.953805,11.813032],"properties":{"Storecode":"438","Storename":"BPH - 361 DT 741","Address":"361 Đường ĐT741, Khu Phố 4, Phường Long Phước, Thị Xã Phước Long","Region":"SouthEast2","Province":"Binh Phuoc","District":"Phuoc Long"}},{"type":"Point","coordinates":[106.661869,10.754948],"properties":{"Storecode":"439","Storename":"HCM - 247 Hong Bang","Address":"245 - 247 Hồng Bàng, Phường 11, Quận 5, Thành phố Hồ Chí Minh,Việt Nam","Region":"HCM","Province":"Ho Chi Minh","District":"Quan 5"}},{"type":"Point","coordinates":[106.635278,10.769296],"properties":{"Storecode":"440","Storename":"HCM - 43D Hoa Binh","Address":"Số 43D Hòa Bình, Phường Tân Thới Hòa, Quận Tân Phú, Thành phố Hồ Chí Minh","Region":"HCM","Province":"Ho Chi Minh","District":"Tan Phu"}},{"type":"Point","coordinates":[106.718765,10.73496],"properties":{"Storecode":"441","Storename":"HCM - Lo C CC Tan My","Address":"tầng 1+ 2, Lô C Chung cư Tân Mỹ, đường Tân Mỹ, Phường Tân Phú, Quận 7, Thành phố Hồ Chí Minh.","Region":"HCM","Province":"Ho Chi Minh","District":"Quan 7"}},{"type":"Point","coordinates":[105.46513,9.781933],"properties":{"Storecode":"442","Storename":"HAG - 361 Tran hung Dao","Address":"361 Trần Hưng Đạo, Phường 1, Thành phố Vị Thanh, Tỉnh Hậu Giang","Region":"Mekong2","Province":"Hau Giang","District":"Vi Thanh"}},{"type":"Point","coordinates":[106.730709,10.807324],"properties":{"Storecode":"443","Storename":"HCM - 77 Quoc Huong","Address":"Số 77, Đường Quốc Hương, Phường Thảo Điền, Thành phố Thủ Đức, Thành phố Hồ Chí Minh","Region":"HCM","Province":"Ho Chi Minh","District":"Thu Duc"}},{"type":"Point","coordinates":[108.664261,13.954324],"properties":{"Storecode":"444","Storename":"GLA - 347 Quang Trung","Address":"347 Quang Trung, Tổ dân phố 10, Phường An Phú, Thị xã An Khê, Tỉnh Gia Lai.","Region":"Highland3","Province":"Gia Lai","District":"An Khe"}},{"type":"Point","coordinates":[106.690237,10.818943],"properties":{"Storecode":"446","Storename":"HCM - 141 Nguyen Hong","Address":"141 Nguyên Hồng, Phường 01, Quận Gò Vấp, Thành phố Hồ Chí Minh","Region":"HCM","Province":"Ho Chi Minh","District":"Go Vap"}},{"type":"Point","coordinates":[106.676819,10.788528],"properties":{"Storecode":"447","Storename":"HCM - 396 Le Van Sy","Address":"396 Lê Văn Sỹ, Phường 14, Quận 3, Thành phố Hồ Chí Minh","Region":"HCM","Province":"Ho Chi Minh","District":"Quan 3"}},{"type":"Point","coordinates":[107.173662,10.491355],"properties":{"Storecode":"448","Storename":"BVT - 62 Nguyen Huu Tho","Address":"62 Nguyễn Hữu Thọ, Phường Phước Trung, Thành phố Bà Rịa, Tỉnh Bà Rịa - Vũng Tàu.","Region":"SouthEast2","Province":"Ba Ria - Vung Tau","District":"Ba Ria"}},{"type":"Point","coordinates":[108.098932,10.924892],"properties":{"Storecode":"449","Storename":"BTH - 324 Tran Hung Dao","Address":"324 Trần Hưng Đạo, Khu phố 1, Phường Đức Thắng, Thành phố Phan Thiết, Tỉnh Bình Thuận","Region":"Central1","Province":"Binh Thuan","District":"Phan Thiet"}},{"type":"Point","coordinates":[108.111361,10.932457],"properties":{"Storecode":"452","Storename":"BTH - 200 Thủ Khoa Huân","Address":"200 Thủ Khoa Huân, Phường Phú Thủy, Thành phố Phan Thiết, Tỉnh Bình Thuận","Region":"Central1","Province":"Binh Thuan","District":"Phan Thiet"}},{"type":"Point","coordinates":[108.10479,10.92818],"properties":{"Storecode":"453","Storename":"BTH - 373 Trần Hưng Đạo","Address":"373 Trần Hưng Đạo, Phường Bình Hưng, Thành phố Phan Thiết, Tỉnh Bình Thuận","Region":"Central1","Province":"Binh Thuan","District":"Phan Thiet"}},{"type":"Point","coordinates":[105.748885,20.99036],"properties":{"Storecode":"455","Storename":"HNI - Aeon Mall Hà Đông","Address":"T313 Tầng 3 AEONMALL Hà Đông, Khu đô thị mới Dương Nội, Phường Dương Nội, Quận Hà Đông, Thành phố Hà Nội","Region":"North","Province":"Ha Noi","District":"Ha Dong"}},{"type":"Point","coordinates":[106.685424,10.76776],"properties":{"Storecode":"459","Storename":"HCM - 223B Cống Quỳnh","Address":"223B Cống Quỳnh, Nguyễn Cư Trinh, Quận 1, HCM","Region":"HCM","Province":"Ho Chi Minh","District":"Quan 1"}},{"type":"Point","coordinates":[106.660882,10.792584],"properties":{"Storecode":"460","Storename":"HCM - 258-260 Phạm Văn Hai","Address":"258-260 Phạm Văn Hai, Phường 5, Quận Tân Bình, Thành phố Hồ Chí Minh","Region":"HCM","Province":"Ho Chi Minh","District":"Tan Binh"}},{"type":"Point","coordinates":[106.767095,10.896562],"properties":{"Storecode":"461","Storename":"BDU - 01 Ngô Thời Nhậm","Address":"01 Ngô Thì Nhậm, Phường Dĩ An, Thành phố Dĩ An, Tỉnh Bình Dương","Region":"SouthEast2","Province":"Binh Duong","District":"Di An"}},{"type":"Point","coordinates":[106.125686,11.306596],"properties":{"Storecode":"462","Storename":"TNI - 1186 CMT8","Address":"1186 đường Cách Mạng Tháng Tám, Khu Phố 2, Phường 4, Thành Phố Tây Ninh, Tỉnh Tây Ninh","Region":"SouthEast1","Province":"Tay Ninh","District":"Tay Ninh"}},{"type":"Point","coordinates":[106.722673,10.828801],"properties":{"Storecode":"463","Storename":"HCM - 744 Phạm Văn Đồng","Address":"744 Phạm Văn Đồng, Khu phố 4, Phường Hiệp Bình Chánh, Thành phố Thủ Đức, Thành phố Hồ Chí Minh","Region":"HCM","Province":"Ho Chi Minh","District":"Thu duc"}},{"type":"Point","coordinates":[106.589744,10.581823],"properties":{"Storecode":"464","Storename":"LAN - 46 Đường Chợ Mới","Address":"46 Đường Chợ Mới, Xã Long Hòa, Huyện Cần Đước, Tỉnh Long An","Region":"Mekong1","Province":"Long An","District":"Can Duoc"}},{"type":"Point","coordinates":[106.471015,10.797844],"properties":{"Storecode":"465","Storename":"LAN - 16 Tỉnh lộ 825","Address":"16 Đường Tỉnh lộ 825, Ấp Bình Tả 2, Xã Đức Hòa Hạ, Huyện Đức Hòa, Tỉnh Long An.","Region":"Mekong1","Province":"Long An","District":"Duc Hoa"}},{"type":"Point","coordinates":[106.671195,10.756846],"properties":{"Storecode":"467","Storename":"HCM - 77 - 79 An Dương Vương","Address":"77 - 79 An Dương Vương, Phường 8, quận 5, TPHCM","Region":"HCM","Province":"Ho Chi Minh","District":"Quan 5"}},{"type":"Point","coordinates":[106.60002,10.845987],"properties":{"Storecode":"468","Storename":"HCM - 88/4 Nguyễn Ảnh Thủ","Address":"88/4 Nguyễn Ảnh Thủ, Ấp Tây Lân, Xã Bà Điểm, Huyện Hóc Môn, Thành phố Hồ Chí Minh","Region":"HCM","Province":"Ho Chi Minh","District":"Hoc Mon"}},{"type":"Point","coordinates":[106.73395,10.978544],"properties":{"Storecode":"469","Storename":"BDU - 67/13 Đường ĐT743","Address":"67/13 đường DT743, Khu phố Bình Phước B, Phường Bình Chuẩn, Thành phố Thuận An, Tỉnh Bình Dương","Region":"SouthEast2","Province":"Binh Duong","District":"Thuan An"}},{"type":"Point","coordinates":[106.85759,10.988943],"properties":{"Storecode":"470","Storename":"DON - Trần Văn Xã","Address":"2/11 Trần Văn Xã, Khu Phố 5, Phường Trảng Dài, Thành phố Biên Hòa, Tỉnh Đồng Nai","Region":"SouthEast2","Province":"Dong nai","District":"Bien Hoa"}},{"type":"Point","coordinates":[105.150076,9.174865],"properties":{"Storecode":"471","Storename":"CMA - 4B - 5 Hùng Vương","Address":"4B-5 Hùng Vương, Khóm 4, Phường 7, TP.Cà Mau, Cà Mau","Region":"Mekong2","Province":"Ca Mau","District":"Ca Mau"}},{"type":"Point","coordinates":[105.988843,10.234059],"properties":{"Storecode":"472","Storename":"VLO - 64/6D Trần Phú","Address":"64/6D Trần Phú, Phường 4, Thành phố Vĩnh Long, Tỉnh Vĩnh Long","Region":"Mekong2","Province":"Vinh Long","District":"Vinh Long"}},{"type":"Point","coordinates":[108.151582,16.069521],"properties":{"Storecode":"473","Storename":"DNA - 842- 844 Tôn Đức Thắng","Address":"842 - 844 Tôn Đức Thắng, Phường Hòa Khánh Bắc, Quận Liên Chiểu, Thành phố Đà Nẵng","Region":"Central2","Province":"Da Nang","District":"Lien Chieu"}},{"type":"Point","coordinates":[106.34145,9.935265],"properties":{"Storecode":"474","Storename":"TVI - 12 Điện Biên Phủ","Address":"12 Điện Biên Phủ, Phường 06, Thành phố Trà Vinh, Tỉnh Trà Vinh","Region":"Mekong2","Province":"Tra Vinh","District":"Tra Vinh"}},{"type":"Point","coordinates":[106.033403,10.338573],"properties":{"Storecode":"475","Storename":"TGI - 210 Đường Tỉnh 875","Address":"210 Đường Tỉnh 875, tổ 18, khu 3, Thị Trấn Cái Bè, Huyện Cái Bè, Tỉnh Tiền Giang","Region":"Mekong1","Province":"Tien Giang","District":"Cai Be"}},{"type":"Point","coordinates":[106.62258,10.783918],"properties":{"Storecode":"476","Storename":"HCM - 307 Nguyễn Sơn","Address":"307 Nguyễn Sơn, Phường Phú Thạnh, Quận Tân Phú, Thành phố Hồ Chí Minh","Region":"HCM","Province":"Ho Chi Minh","District":"Tan Phu"}},{"type":"Point","coordinates":[106.690488,10.952341],"properties":{"Storecode":"477","Storename":"BDU - 30/2 ĐT 743","Address":"30/2 ĐT 743, Khu phố Bình Quới A, Phường Bình Chuẩn, Thành phố Thuận An, Tỉnh Bình Dương.","Region":"SouthEast2","Province":"Binh Duong","District":"Thuan An"}},{"type":"Point","coordinates":[106.759625,10.926763],"properties":{"Storecode":"480","Storename":"BDU - 02 Lê Hồng Phong","Address":"02 Lê Hồng Phong, Khu Phố Đông Thành, Phường Tân Đông Hiệp, Thành Phố Dĩ An, Tỉnh Bình Dương","Region":"SouthEast2","Province":"Binh Duong","District":"Di An"}},{"type":"Point","coordinates":[106.847534,10.981931],"properties":{"Storecode":"490","Storename":"DON - 58 Đồng Khởi","Address":"58 Đồng Khởi, Khu phố 11, Phường Tân Phong, Thành phố Biên Hòa, Tỉnh Đồng Nai.","Region":"SouthEast2","Province":"Dong nai","District":"Bien Hoa"}},{"type":"Point","coordinates":[106.686908,10.824379],"properties":{"Storecode":"492","Storename":"HCM - 37 Trần Phú Cương","Address":"37 Trần Phú Cương, Phường 5, Quận Gò Vấp, Thành phố Hồ Chí Minh","Region":"HCM","Province":"Ho Chi Minh","District":"Go Vap"}},{"type":"Point","coordinates":[106.720066,10.800296],"properties":{"Storecode":"493","Storename":"HCM - 16 Nguyễn Văn Thương","Address":"16 Nguyễn Văn Thương, Phường 25, Quận Bình Thạnh, Thành phố Hồ Chí Minh","Region":"HCM","Province":"Ho Chi Minh","District":"Binh Thanh"}},{"type":"Point","coordinates":[105.68701,18.675705],"properties":{"Storecode":"494","Storename":"NAN - 83 Nguyễn Văn Cừ","Address":"83 Nguyễn Văn Cừ, Khối 2 Phường Trường Thi, Thành phố Vinh, Tỉnh Nghệ An","Region":"North","Province":"Nghe An","District":"Vinh"}},{"type":"Point","coordinates":[106.351668,10.463617],"properties":{"Storecode":"496","Storename":"TGI - 458/2 Quốc Lộ 1A","Address":"458/2 Quốc Lộ 1A, Ấp Tân Phong, Xã Tân Lý Tây, Huyện Châu Thành, Tỉnh Tiền Giang","Region":"Mekong1","Province":"Tien Giang","District":"Chau Thanh"}},{"type":"Point","coordinates":[107.094982,10.362196],"properties":{"Storecode":"497","Storename":"BVT - 305 Nguyễn An Ninh","Address":"305 Nguyễn An Ninh, phường 09, TP. Vũng Tàu , Tỉnh Bà Rịa-Vũng Tàu","Region":"SouthEast2","Province":"Ba Ria - Vung Tau","District":"Vung Tau"}},{"type":"Point","coordinates":[106.607637,10.727873],"properties":{"Storecode":"498","Storename":"HCM - 470 Hồ Học Lãm","Address":"470 Hồ Học Lãm, Khu phố 3, Phường An Lạc, Quận Bình Tân","Region":"HCM","Province":"Ho Chi Minh","District":"Binh Tan"}},{"type":"Point","coordinates":[106.735653,10.632286],"properties":{"Storecode":"501","Storename":"HCM - 786 Nguyễn Văn Tạo","Address":"786 Nguyễn Văn Tạo, Ấp 1, Xã Hiệp Phước, Huyện Nhà Bè, Thành phố Hồ Chí Minh.","Region":"HCM","Province":"Ho Chi Minh","District":"Nha Be"}},{"type":"Point","coordinates":[106.759625,10.926763],"properties":{"Storecode":"502","Storename":"BDU - 533/12B KP Đông Thành","Address":"533/12B Khu phố Đông Thành, Phường Tân Đông Hiệp, Thành phố Dĩ An, Tỉnh Bình Dương","Region":"SouthEast2","Province":"Binh Duong","District":"Di An"}},{"type":"Point","coordinates":[106.852328,10.901868],"properties":{"Storecode":"503","Storename":"DON - F7/1 - F7/2 Quốc Lộ 51","Address":"F7/1 - F7/2 Quốc Lộ 51, Khu Phố 1, Phường Long Bình Tân, Thành phố Biên Hòa, Tỉnh Đồng Nai","Region":"SouthEast2","Province":"Dong nai","District":"Bien Hoa"}},{"type":"Point","coordinates":[106.703795,10.820144],"properties":{"Storecode":"504","Storename":"HCM - 401 Nơ Trang Long","Address":"401 Nơ Trang Long, Phường 13, Quận Bình Thạnh, Thành phố Hồ Chí Minh","Region":"HCM","Province":"Ho Chi Minh","District":"Binh Thanh"}},{"type":"Point","coordinates":[106.62866,10.792828],"properties":{"Storecode":"505","Storename":"HCM - 179 Độc Lập","Address":"179 Độc Lập, Phường Tân Quý, Quận Tân Phú, Thành phố Hồ Chí Minh","Region":"HCM","Province":"Ho Chi Minh","District":"Tan Phu"}},{"type":"Point","coordinates":[106.681712,20.855679],"properties":{"Storecode":"506","Storename":"HAP - 2 - 4 Cầu Đất","Address":"2 - 4 Cầu Đất, phường Cầu Đất, Ngô Quyền, Thành phố Hải Phòng","Region":"North","Province":"Hai Phong","District":"Ngo Quyen"}},{"type":"Point","coordinates":[106.922809,10.757535],"properties":{"Storecode":"507","Storename":"DON - 450 Lý Thái Tổ","Address":"450 Lý Thái Tổ, Ấp Bến Cam, Xã Phước Thiền, Huyện Nhơn Trạch, Tỉnh Đồng Nai","Region":"SouthEast2","Province":"Dong Nai","District":"Nhon Trach"}},{"type":"Point","coordinates":[104.994127,8.759819],"properties":{"Storecode":"509","Storename":"CMA - Nguyễn Tất Thành","Address":"Nguyễn Tất Thành, Khóm 2, Thị Trấn Năm Căn, Huyện Năm Căn, Tỉnh Cà Mau","Region":"Mekong2","Province":"Ca Mau","District":"Nam Can"}},{"type":"Point","coordinates":[107.399344,10.534798],"properties":{"Storecode":"510","Storename":"BVT - 6 - 8 Huỳnh Minh Thạnh","Address":"6 – 8 đường Huỳnh Minh Thạnh, Thị trấn Phước Bửu, Huyện Xuyên Mộc, Tỉnh Bà Rịa – Vũng Tàu","Region":"SouthEast2","Province":"Ba Ria - Vung Tau","District":"Xuyen Moc"}},{"type":"Point","coordinates":[106.580916,10.357233],"properties":{"Storecode":"512","Storename":"TGI - 39B Quốc Lộ 50","Address":"39B Quốc Lộ 50, Khu phố 5, Thị trấn Vĩnh Bình, Huyện Gò Công Tây, Tỉnh Tiền Giang","Region":"Mekong1","Province":"Tien Giang","District":"Go Cong Tay"}},{"type":"Point","coordinates":[106.65833,10.975088],"properties":{"Storecode":"513","Storename":"BDU - 626 Cách Mạng Tháng Tám","Address":"626 Cách Mạng Tháng Tám, Phú Cường, Thành phố Thủ Dầu Một, Tỉnh Bình Dương","Region":"SouthEast2","Province":"Binh Duong","District":"Thu Dau Mot"}},{"type":"Point","coordinates":[106.733618,10.92117],"properties":{"Storecode":"514","Storename":"BDU - 14 Nguyễn Du","Address":"14 Nguyễn Du, Phường Bình Hòa, Thành Phố Thuận An, Tỉnh Bình Dương","Region":"SouthEast2","Province":"Binh Duong","District":"Thuan An"}},{"type":"Point","coordinates":[106.620311,10.780506],"properties":{"Storecode":"519","Storename":"HCM - 212-214A Bình Long","Address":"212-214A, đường Bình Long, Phường Phú Thạnh, Quận Tân Phú, Thành phố Hồ Chí Minh","Region":"HCM","Province":"Ho Chi Minh","District":"Tan Phu"}},{"type":"Point","coordinates":[108.801261,15.132849],"properties":{"Storecode":"520","Storename":"QNG - 2 Hai Bà Trưng","Address":"2 Hai Bà Trưng, phường Lê Hồng Phong, Thành Phố Quảng Ngãi, tỉnh Quảng Ngãi.","Region":"Central2","Province":"Quang Ngai","District":"Quang Ngai"}},{"type":"Point","coordinates":[106.733285,10.87224],"properties":{"Storecode":"521","Storename":"HCM - 742 - 744 Tỉnh Lộ 43","Address":"742 - 744 Tỉnh Lộ 43, Khu phố 3, Phường Bình Chiểu, Thành phố Thủ Đức, Thành phố Hồ Chí Minh","Region":"HCM","Province":"Ho Chi Minh","District":"Thu Duc"}},{"type":"Point","coordinates":[106.265366,11.084002],"properties":{"Storecode":"522","Storename":"TNI - 410 Quốc lộ 22B","Address":"410 Quốc lộ 22B, Khu phố Nội ô A, Thị trấn Gò Dầu, Huyện Gò Dầu, Tỉnh Tây Ninh","Region":"SouthEast1","Province":"Tay Ninh","District":"Go Dau"}},{"type":"Point","coordinates":[106.494852,10.627272],"properties":{"Storecode":"523","Storename":"LAN - 185 Phan Văn Mãng","Address":"185 Phan Văn Mãng, Khu phố 9, Thị trấn Bến Lức, Huyện Bến Lức, Long An","Region":"Mekong1","Province":"Long An","District":"Ben Luc"}},{"type":"Point","coordinates":[106.090747,11.316146],"properties":{"Storecode":"524","Storename":"TNI - 232 Cách Mạng Tháng Tám","Address":"232 Cách Mạng Tháng Tám, Khu phố 1, Phường 2, Thành Phố Tây Ninh, Tỉnh Tây Ninh","Region":"SouthEast1","Province":"Tay Ninh","District":"Tay Ninh"}},{"type":"Point","coordinates":[106.583358,10.728998],"properties":{"Storecode":"525","Storename":"HCM - B5/4A-B5/5 Trần Đại Nghĩa","Address":"B5/4A-B5/5 Trần Đại Nghĩa, Xã Tân Kiên, Huyện Bình Chánh, Thành phố Hồ Chí Minh","Region":"HCM","Province":"Ho Chi Minh","District":"Binh Chanh"}},{"type":"Point","coordinates":[106.671306,10.606114],"properties":{"Storecode":"526","Storename":"LAN - 105 - 107 Quốc Lộ 50","Address":"105 - 107 Quốc Lộ 50, Thị trấn Cần Giuộc, Huyện Cần Giuộc, Tỉnh Long An","Region":"Mekong1","Province":"Long An","District":"Can Giuoc"}},{"type":"Point","coordinates":[106.626255,10.725482],"properties":{"Storecode":"527","Storename":"HCM - 48A An Dương Vương","Address":"48A An Dương Vương, Phường 16, Quận 8, Thành phố Hồ Chí Minh","Region":"HCM","Province":"Ho Chi Minh","District":"Quan 8"}},{"type":"Point","coordinates":[109.197717,12.273847],"properties":{"Storecode":"532","Storename":"KHO - B5-B6 Chung cư Vĩnh Phước","Address":"B5 - B6 (tầng 1) Chung cư Vĩnh Phước, Đường 2/4, Phường Vĩnh Phước, Thành phố Nha Trang, Tỉnh Khánh Hòa.","Region":"Central1","Province":"Khanh Hoa","District":"Nha Trang"}},{"type":"Point","coordinates":[106.421032,10.564409],"properties":{"Storecode":"533","Storename":"LAN - 30 Quốc Lộ 1A","Address":"30 Quốc Lộ 1A, Phường 5, Thành phố Tân An, Tỉnh Long An.","Region":"Mekong1","Province":"Long An","District":"Tan An"}},{"type":"Point","coordinates":[106.58919,10.756684],"properties":{"Storecode":"534","Storename":"HCM - 1355 Tỉnh lộ 10","Address":"1355 Tỉnh lộ 10, Khu phố 2, Phường Tân Tạo A, Quận Bình Tân, Thành phố Hồ Chí Minh","Region":"HCM","Province":"Ho Chi Minh","District":"Binh Tan"}},{"type":"Point","coordinates":[106.808178,10.952441],"properties":{"Storecode":"535","Storename":"DON - 537 Cách Mạng Tháng Tám","Address":"537 Cách Mạng Tháng Tám, Phường Hòa Bình, Thành phố Biên Hòa, Đồng Nai","Region":"SouthEast2","Province":"Dong Nai","District":"Bien Hoa"}},{"type":"Point","coordinates":[106.682823,10.966343],"properties":{"Storecode":"536","Storename":"BDU - 81 Đại lộ Bình Dương","Address":"81 Đại lộ Bình Dương, Phường Phú Thọ, Thành phố Thủ Dầu Một, Tỉnh Bình Dương","Region":"SouthEast2","Province":"Binh Duong","District":"Thu Dau Mot"}},{"type":"Point","coordinates":[106.652514,10.983688],"properties":{"Storecode":"537","Storename":"BDU - 416 Cách Mạng Tháng Tám","Address":"416 Cách Mạng Tháng Tám, Phường Phú Cường, Thành phố Thủ Dầu Một, Tỉnh Bình Dương","Region":"SouthEast2","Province":"Binh Duong","District":"Thu Dau Mot"}},{"type":"Point","coordinates":[106.98449,10.947658],"properties":{"Storecode":"538","Storename":"DON - 2227 Quốc Lộ 1A","Address":"2227 đường Quốc Lộ 1A, Xã Hố Nai 3, Huyện Trảng Bom, Tỉnh Đồng Nai.","Region":"SouthEast2","Province":"Dong Nai","District":"Trang Bom"}},{"type":"Point","coordinates":[106.428828,10.913981],"properties":{"Storecode":"539","Storename":"LAN - 23 DT823","Address":"23 DT823, Ấp Đức Hạnh 2, Xã Đức Lập Hạ, Huyện Đức Hòa, Tỉnh Long An.","Region":"Mekong1","Province":"Long An","District":"Duc Hoa"}},{"type":"Point","coordinates":[108.484131,11.760167],"properties":{"Storecode":"540","Storename":"LDO - 321 đường 2/4","Address":"321 đường 2/4, Thị trấn Thạnh Mỹ, Huyện Đơn Dương, Tỉnh Lâm Đồng.","Region":"Highland1","Province":"Lam Dong","District":"Don Duong"}},{"type":"Point","coordinates":[106.380055,11.027082],"properties":{"Storecode":"541","Storename":"TNI - Quốc Lộ 22","Address":"Quốc Lộ 22, Tổ 6, Khu phố An Bình, Phường An Tịnh, Thị xã Trảng Bàng, Tỉnh Tây Ninh","Region":"SouthEast1","Province":"Tay Ninh","District":"Trang Bang"}},{"type":"Point","coordinates":[106.681936,10.765935],"properties":{"Storecode":"542","Storename":"HCM - 510 Nguyễn Thị Minh Khai","Address":"510 Nguyễn Thị Minh Khai, Phường 2, Quận 3, Thành phố Hồ Chí Minh","Region":"HCM","Province":"Ho Chi Minh","District":"Quan 3"}},{"type":"Point","coordinates":[105.014832,10.107003],"properties":{"Storecode":"543","Storename":"KGI - Lô 1 Đường số 8","Address":"Lô 1 Đường số 8, Khu phố Thị Tứ, Thị trấn Sóc Sơn, Huyện Hòn Đất, Tỉnh Kiên Giang","Region":"Mekong2","Province":"Kien Giang","District":"Hon Dat"}},{"type":"Point","coordinates":[106.644167,10.79797],"properties":{"Storecode":"545","Storename":"HCM - 304B Trường Chinh","Address":"304B Trường Chinh, Phường 13, Quận Tân Bình, Thành phố Hồ Chí Minh","Region":"HCM","Province":"Ho Chi Minh","District":"Tan Binh"}},{"type":"Point","coordinates":[106.660179,10.76368],"properties":{"Storecode":"546","Storename":"HCM - 140 Lý Thường Kiệt","Address":"140 Lý Thường Kiệt, Phường 7, Quận 10, Thành phố Hồ Chí Minh.","Region":"HCM","Province":"Ho Chi Minh","District":"Quan 10"}},{"type":"Point","coordinates":[107.953451,11.537603],"properties":{"Storecode":"547","Storename":"LDO - 21-22 Quốc Lộ 20","Address":"21-22 Quốc Lộ 20, Thôn 2, Xã Hòa Ninh, Huyện Di Linh, Tỉnh Lâm Đồng","Region":"Highland1","Province":"Lam Dong","District":"Di Linh"}},{"type":"Point","coordinates":[105.093738,10.788597],"properties":{"Storecode":"548","Storename":"AGI - 3855 - 3857 BẠCH ĐẰNG","Address":"3855 - 3857 Đường Bạch Đằng, Ấp An Hưng, Thị trấn An Phú, Huyện An Phú, Tỉnh An Giang","Region":"Mekong2","Province":"An Giang","District":"An Phu"}},{"type":"Point","coordinates":[108.374236,11.736],"properties":{"Storecode":"549","Storename":"LDO - 19-21 Thống Nhất","Address":"19-21 Thống Nhất, Thị trấn Liên Nghĩa, Huyện Đức Trọng, Tỉnh Lâm Đồng","Region":"Highland1","Province":"Lam Dong","District":"Duc Trong"}},{"type":"Point","coordinates":[106.60655,11.126187],"properties":{"Storecode":"550","Storename":"BDU - Lô CC1","Address":"Lô CC1, đường N1, P. Mỹ Phước, TX. Bến Cát, Bình Dương","Region":"SouthEast2","Province":"Binh Duong","District":"Ben Cat"}},{"type":"Point","coordinates":[106.669041,11.000011],"properties":{"Storecode":"552","Storename":"BDU - 107 đường số 8","Address":"107 đường số 8 KDC Hiệp Thành 3, Thủ Dầu Một, Bình Dương","Region":"SouthEast2","Province":"Binh Duong","District":"Thu Dau Mot"}},{"type":"Point","coordinates":[106.695028,10.847559],"properties":{"Storecode":"553","Storename":"HCM - 2167/1B Vườn Lài","Address":"2167/1B Vườn Lài, Khu phố 1, Phường An Phú Đông, Quận 12, Thành phố Hồ Chí Minh","Region":"HCM","Province":"Ho Chi Minh","District":"Quan 12"}},{"type":"Point","coordinates":[106.161672,11.552999],"properties":{"Storecode":"554","Storename":"TNI - 129 Tôn Đức Thắng","Address":"129 Tôn Đức Thắng, Khu phố 1, thị trấn Tân Châu, Huyện Tân Châu, tỉnh Tây Ninh.","Region":"SouthEast1","Province":"Tay Ninh","District":"Tan Chau"}},{"type":"Point","coordinates":[106.728342,10.942388],"properties":{"Storecode":"555","Storename":"BDU - Lô DC37 Đường D33","Address":"Ô 06-07-08, Lô DC37, Đường D33, KDC Việt Sing, Phường An Phú, Thành phố Thuận An, Tỉnh Bình Dương","Region":"SouthEast2","Province":"Binh Duong","District":"Thuan An"}},{"type":"Point","coordinates":[106.726855,10.845396],"properties":{"Storecode":"556","Storename":"HCM - 79A - 81 đường Hiệp Bình","Address":"79A - 81 đường Hiệp Bình, Phường Hiệp Bình Chánh, Thành phố Thủ Đức, Thành phố Hồ Chí Minh","Region":"HCM","Province":"Ho Chi Minh","District":"Thu Duc"}},{"type":"Point","coordinates":[107.085677,20.952626],"properties":{"Storecode":"557","Storename":"QNI - 18 Phố Giếng Đồn","Address":"18 Phố Giếng Đồn, phường Trần Hưng Đạo, Thành phố Hạ Long, Quảng Ninh","Region":"North","Province":"Quang Ninh","District":"Ha Long"}},{"type":"Point","coordinates":[106.124463,11.29187],"properties":{"Storecode":"558","Storename":"TNI - 363 Châu Văn Liêm","Address":"363 Châu Văn Liêm, Ấp Hiệp Long, Xã Hiệp Tân, H.Hoà Thành, Tây Ninh","Region":"SouthEast1","Province":"Tay Ninh","District":"Hoa Thanh"}},{"type":"Point","coordinates":[106.633297,10.787629],"properties":{"Storecode":"559","Storename":"HCM - 85-87 Vườn Lài","Address":"85-87 Vườn Lài, Phường Phú Thọ Hòa, Quận Tân Phú, Thành phố Hồ Chí Minh","Region":"HCM","Province":"Ho Chi Minh","District":"Tan Phu"}},{"type":"Point","coordinates":[106.821753,10.806274],"properties":{"Storecode":"560","Storename":"HCM - 1463-1465 Nguyễn Duy Trinh","Address":"1463 - 1465 Nguyễn Duy Trinh, Khu Phố Phước Lai, Phường Trường Thạnh, Thành phố Thủ Đức, Thành phố Hồ Chí Minh","Region":"HCM","Province":"Ho Chi Minh","District":"Thu Duc"}},{"type":"Point","coordinates":[106.688503,11.054353],"properties":{"Storecode":"561","Storename":"BDU - Chợ Phú Chánh A","Address":"Thửa đất số 13, tờ bản đồ 50, Khu tái định cư Phú Chánh, Phường Hòa Phú, Thành phố Thủ Dầu Một, Tỉnh Bình Dương","Region":"SouthEast2","Province":"Binh Duong","District":"Thu Dau Mot"}},{"type":"Point","coordinates":[106.718765,10.73496],"properties":{"Storecode":"562","Storename":"HCM - Kho Online Trung Tâm","Address":"tầng 1+ 2, Lô C Chung cư Tân Mỹ, đường Tân Mỹ, Phường Tân Phú, Quận 7, Thành phố Hồ Chí Minh.","Region":"HCM","Province":"Ho Chi Minh","District":"Quan 7"}},{"type":"Point","coordinates":[106.934352,10.965437],"properties":{"Storecode":"563","Storename":"DON - 2698 Quốc Lộ 1A","Address":"2698 Quốc Lộ 1A, xã Hố Nai 3, huyện Trảng Bom, tỉnh Đồng Nai","Region":"SouthEast2","Province":"Dong Nai","District":"Trang Bom"}},{"type":"Point","coordinates":[106.604842,10.787636],"properties":{"Storecode":"564","Storename":"HCM - 232A-232B Go Xoai","Address":"232A - 232B Gò Xoài, Khu phố 3, Phường Bình Hưng Hòa A, Quận Bình Tân, Thành phố Hồ Chí Minh.","Region":"HCM","Province":"Ho Chi Minh","District":"Binh Tan"}},{"type":"Point","coordinates":[108.22099,16.046238],"properties":{"Storecode":"567","Storename":"DNA - 164 Nui Thanh","Address":"164 Núi Thành, phường Hoà Cường Bắc, Quận Hải Châu, TP Đà Nẵng","Region":"Central2","Province":"Da Nang","District":"Hai Chau"}},{"type":"Point","coordinates":[105.749262,10.075126],"properties":{"Storecode":"569","Storename":"CTO - 41A Le Hong Phong","Address":"41A đường Lê Hồng Phong, phường Bình Thuỷ, Quận Bình Thuỷ, TP Cần Thơ","Region":"Mekong2","Province":"Can Tho","District":"Binh Thuy"}},{"type":"Point","coordinates":[106.612541,10.746896],"properties":{"Storecode":"570","Storename":"HCM - 178 - 180 Ten Lua","Address":"178-180 Tên Lửa, Phường Bình Trị Đông B, Quận Bình Tân, Thành phố Hồ Chí Minh","Region":"HCM","Province":"Ho Chi Minh","District":"Binh Tan"}},{"type":"Point","coordinates":[106.587999,10.892671],"properties":{"Storecode":"571","Storename":"HCM - 91/11A Le Loi","Address":"91/11A Lê Lợi, ấp Dân Thắng 2, xã Tân Thới Nhì, huyện Hóc Môn, thành phố Hồ Chí Minh","Region":"HCM","Province":"Ho Chi Minh","District":"Hoc Mon"}},{"type":"Point","coordinates":[106.578771,10.829623],"properties":{"Storecode":"572","Storename":"HCM - E9/6A Thoi Hoa","Address":"E9/6A Thới Hòa, Ấp 5A, Xã Vĩnh Lộc A, Huyện Bình Chánh, Thành Phố Hồ Chí Minh","Region":"HCM","Province":"Ho Chi Minh","District":"Binh Chanh"}},{"type":"Point","coordinates":[107.082481,10.350749],"properties":{"Storecode":"573","Storename":"BVT - 288 Truong Cong Dinh","Address":"288 (số cũ 231) Trương Công Định, Phường 3, Thành phố Vũng Tàu, Tỉnh Bà Rịa – Vũng Tàu.","Region":"SouthEast2","Province":"Ba Ria - Vung Tau","District":"Vung Tau"}},{"type":"Point","coordinates":[106.655648,10.744364],"properties":{"Storecode":"575","Storename":"HCM - 2 Tuy Ly Vuong","Address":"2 Tuy Lý Vương, Phường 13, Quận 8, Thành phố Hồ Chí Minh","Region":"HCM","Province":"Ho Chi Minh","District":"Quan 8"}},{"type":"Point","coordinates":[108.232593,16.078957],"properties":{"Storecode":"576","Storename":"DNA - 824 Ngo Quyen","Address":"824 Ngô Quyền, Phường An Hải Bắc, Quận Sơn Trà, TP Đà Nẵng","Region":"Central2","Province":"Da Nang","District":"Son Tra"}},{"type":"Point","coordinates":[109.13358,11.912922],"properties":{"Storecode":"577","Storename":"KHO - 2436 Dai Lo Hung Vuong","Address":"2436 Đại Lộ Hùng Vương, tổ dân phố Hương Long, phường Ba Ngòi, thành phố Cam Ranh, tỉnh Khánh Hòa","Region":"Central1","Province":"Khanh Hoa","District":"Cam Ranh"}},{"type":"Point","coordinates":[106.749595,10.939359],"properties":{"Storecode":"578","Storename":"BDU - KP 1A An Phu","Address":"Khu Phố 1A, Phường An Phú, Thành Phố Thuận An, Tỉnh Bình Dương","Region":"SouthEast2","Province":"Binh Duong","District":"Thuan An"}},{"type":"Point","coordinates":[109.126249,12.491069],"properties":{"Storecode":"579","Storename":"KHO - 05 Nguyen Thi Ngoc Oanh","Address":"05 Nguyễn Thị Ngọc Oanh, phường Ninh Hiệp, Thị xã Ninh Hòa, tỉnh Khánh Hòa","Region":"Central1","Province":"Khanh Hoa","District":"Ninh Hoa"}},{"type":"Point","coordinates":[109.190492,12.215976],"properties":{"Storecode":"580","Storename":"KHO - 1067 Le Hong Phong","Address":"1067 Lê Hồng Phong, phường Phước Long, thành phố Nha Trang, tỉnh Khánh Hòa","Region":"Central1","Province":"Khanh Hoa","District":"Nha Trang"}},{"type":"Point","coordinates":[106.688786,10.746916],"properties":{"Storecode":"582","Storename":"HCM - 182 Dương Bá Trạc","Address":"182 Dương Bá Trạc, Phường 2, Quận 8, Thành phố Hồ Chí Minh","Region":"HCM","Province":"Ho Chi Minh","District":"Quan 8"}},{"type":"Point","coordinates":[107.362959,11.582329],"properties":{"Storecode":"583","Storename":"LDO - 143 Phạm Văn Đồng","Address":"143 Phạm Văn Đồng, tổ dân phố 3, thị trấn Cát Tiên, huyện Cát Tiên, tỉnh Lâm Đồng.","Region":"Highland1","Province":"Lam Dong","District":"Cat Tien"}},{"type":"Point","coordinates":[106.570004,10.833247],"properties":{"Storecode":"584","Storename":"HCM - D13/40A Pham Van Sang","Address":"D13/40A Phạm Văn Sáng, Ấp 4, Xã Vĩnh Lộc A, Huyện Bình Chánh, Thành phố Hồ Chí Minh.","Region":"HCM","Province":"Ho Chi Minh","District":"Binh Chanh"}},{"type":"Point","coordinates":[106.597878,10.959429],"properties":{"Storecode":"585","Storename":"HCM - 425 Tỉnh Lộ 15","Address":"425 Tỉnh Lộ 15, tổ 4, ấp 8, xã Tân Thạnh Đông , huyện Củ Chi, TP HCM","Region":"HCM","Province":"Ho Chi Minh","District":"Cu Chi"}},{"type":"Point","coordinates":[106.189133,10.086975],"properties":{"Storecode":"586","Storename":"VLO - Thị trấn Vũng Liêm","Address":"Thửa đất số 311-312, tờ bản đồ số 9, đường Nam Kỳ Khởi Nghĩa, Khóm 2, Thị trấn Vũng Liêm, Huyện Vũng Liêm, Tỉnh Vĩnh Long","Region":"Mekong2","Province":"Vinh Long","District":"Vung Liem"}},{"type":"Point","coordinates":[106.005232,11.54287],"properties":{"Storecode":"587","Storename":"TNI - 02-04 Nguyễn Chí Thanh","Address":"02 - 04 đường Nguyễn Chí Thanh, Thị trấn Tân Biên, Huyện Tân Biên, Tỉnh Tây Ninh","Region":"SouthEast1","Province":"Tay Ninh","District":"Tan Bien"}},{"type":"Point","coordinates":[104.945152,9.620383],"properties":{"Storecode":"589","Storename":"KGI - KP3 TT thứ 11","Address":"khu phố 3, TT Thứ 11, Huyện An Minh, Tỉnh Kiên Giang.","Region":"Mekong2","Province":"Kien Giang","District":"An Minh"}},{"type":"Point","coordinates":[108.250802,16.023529],"properties":{"Storecode":"590","Storename":"DNA - 93-95 Lê Văn Hiến","Address":"93-95 Lê Văn Hiến, phường Khuê Mỹ, quận Ngũ Hành Sơn, Đà Nẵng","Region":"Central2","Province":"Da Nang","District":"Ngu Hanh Son"}},{"type":"Point","coordinates":[107.135286,10.941466],"properties":{"Storecode":"591","Storename":"DON - 665 Quốc lộ 20","Address":"665 Quốc lộ 20, tổ 20, Khu phố Trần Cao Vân, Thị trấn Dầu Giây, Huyện Thống Nhất, Tỉnh Đồng Nai","Region":"SouthEast2","Province":"Dong Nai","District":"Thong Nhat"}},{"type":"Point","coordinates":[107.378734,11.231686],"properties":{"Storecode":"592","Storename":"DON - So 3 Pho 1","Address":"Số 3 Phố 1, Ấp 3, Xã Phú Vinh, Huyện Định Quán, Tỉnh Đồng Nai","Region":"SouthEast2","Province":"Dong Nai","District":"Dinh Quan"}},{"type":"Point","coordinates":[106.119996,10.258212],"properties":{"Storecode":"593","Storename":"BTR - 72/7B To 9","Address":"72/7B Tổ 9, Khu Phố 2, TT Chợ Lách, Huyện Chợ Lách, Tỉnh Bến Tre","Region":"Mekong1","Province":"Ben Tre","District":"Cho Lach"}},{"type":"Point","coordinates":[106.70134,10.781798],"properties":{"Storecode":"598","Storename":"HCM - 66 Nguyễn Du","Address":"66 Nguyễn Du, Phường Bến Nghé, Quận 1, Thành phố Hồ Chí Minh","Region":"HCM","Province":"Ho Chi Minh","District":"Quan 1"}},{"type":"Point","coordinates":[109.200253,12.220541],"properties":{"Storecode":"599","Storename":"KHO - 19 Hoàng Diệu","Address":"19 Hoàng Diệu, phường Vĩnh Nguyên, thành phố Nha Trang, tỉnh Khánh Hòa","Region":"Central1","Province":"Khanh Hoa","District":"Nha Trang"}},{"type":"Point","coordinates":[106.909312,10.875991],"properties":{"Storecode":"600","Storename":"DON - Thua Dat so 104","Address":"Thửa đất số 104, tờ bản đồ 97, Quốc lộ 51, Khu phố Tân Mai 2, Phường Phước Tân, Thành phố Biên Hòa, Tỉnh Đồng Nai","Region":"SouthEast2","Province":"Dong Nai","District":"Bien Hoa"}},{"type":"Point","coordinates":[106.497066,10.86935],"properties":{"Storecode":"601","Storename":"LAN - Thửa Đất 438 ĐT824","Address":"Thửa đất số 438, tờ bản đồ số 7, ĐT824, Ấp Mới 2, Xã Mỹ Hạnh Nam, Huyện Đức Hòa, Tỉnh Long An","Region":"Mekong1","Province":"Long An","District":"Duc Hoa"}},{"type":"Point","coordinates":[106.90145,11.636792],"properties":{"Storecode":"602","Storename":"BDU - Ngã Tư Bến Trám","Address":"Thửa đất số 109, tờ bản đồ 19, đường DT741, ấp 1A, xã Phước Hoà, huyện Phú Giáo, tỉnh Bình Dương","Region":"SouthEast2","Province":"Binh Duong","District":"Phu Giao"}},{"type":"Point","coordinates":[106.61832,10.774449],"properties":{"Storecode":"603","Storename":"HCM - 123 Lê Văn Quới","Address":"123 Lê Văn Quới, Khu phố 2, Phường Bình Trị Đông, Quận Bình Tân, Thành Phố Hồ Chí Minh","Region":"HCM","Province":"Ho Chi Minh","District":"Binh Tan"}},{"type":"Point","coordinates":[106.61577,10.494845],"properties":{"Storecode":"604","Storename":"LAN - 299 Quốc Lộ 50","Address":"299 QL 50, Khu 1A, TT Cần Đước, Huyện Cần Đước, Tỉnh Long An","Region":"Mekong1","Province":"Long An","District":"Can Duoc"}},{"type":"Point","coordinates":[108.172331,16.057232],"properties":{"Storecode":"605","Storename":"DNA - 199-201 Tôn Đức Thắng","Address":"199-201 Tôn Đức Thắng, phường Hoà Minh, Quận Liên Chiểu, Thành phố Đà Nẵng.","Region":"Central2","Province":"Da Nang","District":"Lien Chieu"}},{"type":"Point","coordinates":[106.698414,10.806489],"properties":{"Storecode":"606","Storename":"HCM - 385 Bùi Đình Túy","Address":"385 Bùi Đình Túy, Phường 14, Quận Bình Thạnh, Hồ Chí Minh","Region":"HCM","Province":"Ho Chi Minh","District":"Binh Thanh"}},{"type":"Point","coordinates":[108.445203,11.939362],"properties":{"Storecode":"607","Storename":"LDO - Big C Đà Lạt","Address":"Quảng trường Lâm Viên, đường Trần Quốc Toản, Phường 1, Thành phố Đà Lạt, Lâm Đồng","Region":"Highland1","Province":"Lam Dong","District":"Da Lat"}},{"type":"Point","coordinates":[106.658739,10.796661],"properties":{"Storecode":"608","Storename":"HCM - 9 Út Tịch","Address":"9 Út Tịch, Phường 4, Quận Tân Bình, Thành Phố Hồ Chí Minh.","Region":"HCM","Province":"Ho Chi Minh","District":"Tan Binh"}},{"type":"Point","coordinates":[107.168729,10.492409],"properties":{"Storecode":"609","Storename":"BVT - Go! Mall Bà Rịa","Address":"Go! Mall Bà Rịa , Đường Lê Thành Duy, P. Phước Hiệp, TP. Bà Rịa, Tỉnh Bà Rịa - Vũng Tàu","Region":"SouthEast2","Province":"Ba Ria - Vung Tau","District":"Ba Ria"}},{"type":"Point","coordinates":[108.18722,16.070253],"properties":{"Storecode":"610","Storename":"DNA - 36 Nguyễn Đức Trung","Address":"36 Nguyễn Đức Trung, phường Thanh Khê Đông, Quận Thanh Khê, TP Đà Nẵng","Region":"Central2","Province":"Da Nang","District":"Thanh Khe"}},{"type":"Point","coordinates":[106.523858,10.947637],"properties":{"Storecode":"611","Storename":"HCM - 60 Quốc Lộ 22","Address":"60 Quốc Lộ 22, ấp Bàu Sim, xã Tân Thông Hội, huyện Củ Chi, TP HCM","Region":"HCM","Province":"Ho Chi Minh","District":"Cu Chi"}},{"type":"Point","coordinates":[106.688295,10.808479],"properties":{"Storecode":"612","Storename":"HCM - 84 Nguyễn Văn Đậu","Address":"84 Nguyễn Văn Đậu, P7, Q Bình Thạnh, TP. Hồ Chí Minh","Region":"HCM","Province":"Ho Chi Minh","District":"Binh Thanh"}},{"type":"Point","coordinates":[106.700248,10.791373],"properties":{"Storecode":"613","Storename":"HCM - 93 Nguyễn Bỉnh Khiêm","Address":"93 Nguyễn Bỉnh Khiêm, Phường Đa Kao, Quận 1, Thành phố Hồ Chí Minh","Region":"HCM","Province":"Ho Chi Minh","District":"Quan 1"}},{"type":"Point","coordinates":[105.560385,10.671233],"properties":{"Storecode":"614","Storename":"ĐTH - Trần Hưng Đạo","Address":"Trần Hưng Đạo, Khóm 2, Thị Trấn Tràm Chim, Huyện Tam Nông, Tỉnh Đồng Tháp","Region":"Mekong2","Province":"Dong Thap","District":"Tam Nong"}},{"type":"Point","coordinates":[106.196256,21.27339],"properties":{"Storecode":"615","Storename":"BGI - 161 Lê Lợi","Address":"161 đường Lê Lợi, phường Lê Lợi , thành phố Bắc Giang, tỉnh Bắc Giang","Region":"North","Province":"Bac Giang","District":"Bac Giang"}},{"type":"Point","coordinates":[105.938047,21.021344],"properties":{"Storecode":"617","Storename":"HNI - 205 Nguyễn Đức Thuận","Address":"205 đường Nguyễn Đức Thuận, thị trấn Trâu Quỳ, huyện Gia Lâm, thành phố Hà Nội","Region":"North","Province":"Ha Noi","District":"Gia Lam"}},{"type":"Point","coordinates":[106.850434,10.905609],"properties":{"Storecode":"618","Storename":"DON - Go! Đồng Nai","Address":"Big C Đồng Nai, 833 Xa lộ Hà Nội, Long Bình Tân, Thành phố Biên Hòa, Đồng Nai","Region":"SouthEast2","Province":"Dong Nai","District":"Bien Hoa"}},{"type":"Point","coordinates":[106.047573,10.611066],"properties":{"Storecode":"619","Storename":"LAN - 38 QL62","Address":"38 QL62, khu phố 3, thị trấn Tân Thạnh, huyện Tân Thạnh, tỉnh Long An","Region":"Mekong1","Province":"Long An","District":"Tan Thanh"}},{"type":"Point","coordinates":[106.68444,10.756487],"properties":{"Storecode":"620","Storename":"HCM - 386 Trần Hưng Đạo","Address":"386 Trần Hưng Đạo, Phường 2, Quận 5, Thành phố Hồ Chí Minh","Region":"HCM","Province":"Ho Chi Minh","District":"Quan 5"}},{"type":"Point","coordinates":[109.192101,12.238178],"properties":{"Storecode":"621","Storename":"KHO - 45A Nguyễn Thị Minh Khai","Address":"45A Nguyễn Thị Minh Khai, phường Tân Lập, thành phố Nha Trang, tỉnh Khánh Hòa","Region":"Central1","Province":"Khanh Hoa","District":"Nha Trang"}},{"type":"Point","coordinates":[105.792025,20.96274],"properties":{"Storecode":"622","Storename":"HNI - BT8-VT11","Address":"BT8-VT11, Khu nhà ở Xa La, phường Phúc La, quận Hà Đông, thành phố Hà Nội.","Region":"North","Province":"Ha Noi","District":"Ha Dong"}},{"type":"Point","coordinates":[107.581465,16.47579],"properties":{"Storecode":"623","Storename":"HUE - 111 Mai Thúc Loan","Address":"111 Mai Thúc Loan, phường Thuận Thành, thành phố Huế, tỉnh Thừa Thiên Huế","Region":"Central3","Province":"Hue","District":"Hue"}},{"type":"Point","coordinates":[108.758101,15.300445],"properties":{"Storecode":"624","Storename":"QNG - 282 Phạm Văn Đồng","Address":"282 Phạm Văn Đồng, Thị trấn Châu Ổ, Huyện Bình Sơn, Tỉnh Quảng Ngãi","Region":"Central2","Province":"Quang Ngai","District":"Quang Ngai"}},{"type":"Point","coordinates":[106.123133,10.416514],"properties":{"Storecode":"625","Storename":"TGI - 02 đường 30/04","Address":"02 đường 30/04, khu phố 1, phường 1, Thị xã Cai Lậy, tỉnh Tiền Giang","Region":"Mekong1","Province":"Tien Giang","District":"Cai Lay"}},{"type":"Point","coordinates":[105.001777,10.427765],"properties":{"Storecode":"626","Storename":"AGI - 34 Trần Hưng Đạo","Address":"34 đường Trần Hưng Đạo, thị trấn Tri Tôn, huyện Tri Tôn, tỉnh An Giang","Region":"Mekong2","Province":"An Giang","District":"Tri Ton"}},{"type":"Point","coordinates":[106.647479,10.775375],"properties":{"Storecode":"627","Storename":"HCM - 285 Âu Cơ","Address":"285 Âu Cơ, Phường Phú Trung, Quận Tân Phú, Thành Phố Hồ Chí Minh","Region":"HCM","Province":"Ho Chi Minh","District":"Tan Phu"}},{"type":"Point","coordinates":[106.714018,10.835981],"properties":{"Storecode":"628","Storename":"HCM - 416 Quốc lộ 13","Address":"HCM - 416 Quốc lộ 13, Khu phố 6, Phường Hiệp Bình Phước,Thành phố Thủ Đức","Region":"HCM","Province":"Ho Chi Minh","District":"Thu Duc"}},{"type":"Point","coordinates":[106.592894,10.685332],"properties":{"Storecode":"629","Storename":"LAN - 229-230 QL1A","Address":"229-230 QL1A, ấp 1, xã Thạnh Đức, huyện Bến Lức, tỉnh Long An.","Region":"Mekong1","Province":"Long An","District":"Ben Luc"}},{"type":"Point","coordinates":[109.208364,13.755651],"properties":{"Storecode":"630","Storename":"BDI - 666 Nguyễn Thái Học","Address":"666 Nguyễn Thái Học, Phường Quang Trung, TP Quy Nhơn, Tỉnh Bình Định","Region":"Central2","Province":"Binh Dinh","District":"Qui Nhon"}},{"type":"Point","coordinates":[106.631654,10.740745],"properties":{"Storecode":"631","Storename":"HCM - 43V Cư Xá Phú Lâm D","Address":"43V đường Cư Xá Phú Lâm D, Phường 10, Quận 6, TP.HCM","Region":"HCM","Province":"Ho Chi Minh","District":"Quan 6"}},{"type":"Point","coordinates":[106.330339,10.127158],"properties":{"Storecode":"632","Storename":"BTR - 263 QL60","Address":"263 Đường QL60, Khu Phố 2, Thị Trấn Mỏ Cày, Huyện Mỏ Cày Nam, Tỉnh Bến Tre","Region":"Mekong1","Province":"Ben Tre","District":"Mo Cay Nam"}},{"type":"Point","coordinates":[108.430255,11.951025],"properties":{"Storecode":"633","Storename":"LDO - 15 Ngô Quyền","Address":"15 Ngô Quyền, phường 6, thành phố Đà Lạt, tỉnh Lâm Đồng","Region":"Highland1","Province":"Lam Dong","District":"Da Lat"}},{"type":"Point","coordinates":[107.901106,11.546955],"properties":{"Storecode":"634","Storename":"LDO - Quốc Lộ 20","Address":"Quốc lộ 20, thôn 7, xã Lộc An, Huyện Bảo Lâm, tỉnh Lâm Đồng.","Region":"Highland1","Province":"Lam Dong","District":"Bao Lam"}},{"type":"Point","coordinates":[106.098679,11.317149],"properties":{"Storecode":"635","Storename":"TNI - 404 đường 30/4","Address":"404 đường 30/4, Phường 3, TP. Tây Ninh, Tỉnh Tây Ninh","Region":"SouthEast1","Province":"Tay Ninh","District":"Tay Ninh"}},{"type":"Point","coordinates":[105.805805,20.958371],"properties":{"Storecode":"636","Storename":"HNI - 340 - 342 Phan Trọng Tuệ","Address":"340-342 đường Phan Trọng Tuệ, xã Thanh Liệt, huyện Thanh Trì, thành phố Hà Nội.","Region":"North","Province":"Ha Noi","District":"Thanh Tri"}},{"type":"Point","coordinates":[106.627412,10.834765],"properties":{"Storecode":"637","Storename":"HCM - 74 Đông Hưng Thuận 2","Address":"74 Đông Hưng Thuận 2, Phường Đông Hưng Thuận, Quận 12, Thành Phố Hồ Chí Minh","Region":"HCM","Province":"Ho Chi Minh","District":"Quan 12"}},{"type":"Point","coordinates":[106.35967,11.276051],"properties":{"Storecode":"638","Storename":"BDU - 03-05 Tự Do","Address":"03- 05 Tự Do, Khu phố 2, Thị trấn Dầu Tiếng, Huyện Dầu Tiếng, tỉnh Bình Dương","Region":"SouthEast2","Province":"Binh Duong","District":"Dau Tieng"}},{"type":"Point","coordinates":[105.660353,10.288129],"properties":{"Storecode":"640","Storename":"ĐTH - QL80 Khóm 1","Address":"QL80 Khóm 1, TT. Lai Vung, H. Lai Vung, Đồng Tháp","Region":"Mekong2","Province":"Dong Thap","District":"Lai Vung"}},{"type":"Point","coordinates":[105.73733,10.240627],"properties":{"Storecode":"641","Storename":"ĐTH - K28 TL848","Address":"K28 đường TL 848, Khóm Tân Hòa , Phường An Hòa , Tp. Sa Đéc, Tỉnh Đồng Tháp","Region":"Mekong2","Province":"Dong Thap","District":"Sa Dec"}},{"type":"Point","coordinates":[106.208241,21.266515],"properties":{"Storecode":"642","Storename":"BGI - Go! Bắc Giang","Address":"Big C Bắc Giang, Xã Tân Tiến, Thành Phố Bắc Giang, Tỉnh Bắc Giang","Region":"North","Province":"Bac Giang","District":"Bac Giang"}},{"type":"Point","coordinates":[106.003967,20.241871],"properties":{"Storecode":"643","Storename":"NBI - Go! Ninh Bình","Address":"Go Ninh Bình, đường Trần Nhân Tông, xã Ninh Phúc, thành phố Ninh Bình, tỉnh Ninh Bình.","Region":"North","Province":"Ninh Binh","District":"Ninh Binh"}},{"type":"Point","coordinates":[106.321653,20.43954],"properties":{"Storecode":"644","Storename":"TBI - Go! Thái Bình","Address":"Go Thái Bình, đường Trần Thái Tông, phường Phú Khánh, tỉnh Thái Bình","Region":"North","Province":"Thai Binh","District":"Thai Binh"}},{"type":"Point","coordinates":[106.874255,10.954688],"properties":{"Storecode":"647","Storename":"DON - 530 Xa Lộ Hà Nội","Address":"530 Xa Lộ Hà Nội, Khu phố 4, Phường Tân Hiệp, Thành phố Biên Hòa, Tỉnh Đồng Nai","Region":"SouthEast2","Province":"Dong Nai","District":"Bien Hoa"}},{"type":"Point","coordinates":[106.630644,10.842128],"properties":{"Storecode":"648","Storename":"HCM - B148Bis Nguyễn Văn Quá","Address":"B148Bis Nguyễn Văn Quá, Khu phố 3, Phường Đông Hưng Thuận, Quận 12, Thành phố Hồ Chí Minh","Region":"HCM","Province":"Ho Chi Minh","District":"Quan 12"}},{"type":"Point","coordinates":[107.204273,11.089125],"properties":{"Storecode":"649","Storename":"DON - 4/4 Quốc lộ 20","Address":"4/4 Quốc lộ 20, Ấp Chợ, Xã Phú Túc, Huyện Định Quán, Tỉnh Đồng Nai","Region":"SouthEast2","Province":"Dong nai","District":"Dinh Quan"}},{"type":"Point","coordinates":[106.063103,21.176988],"properties":{"Storecode":"650","Storename":"BNI - 71A đường Nguyễn Cao","Address":"71A đường Nguyễn Cao, phường Ninh Xá, thành phố Bắc Ninh, tỉnh Bắc Ninh","Region":"North","Province":"Bac Ninh","District":"Bac Ninh"}},{"type":"Point","coordinates":[107.118283,10.375249],"properties":{"Storecode":"651","Storename":"BVT - D1 - 3/5 Nguyễn Hữu Cảnh","Address":"D1 – 3/5 Nguyễn Hữu Cảnh, Trung tâm Đô thị Chí Linh, Phường Nguyễn An Ninh, Thành phố Vũng Tàu, Tỉnh Bà Rịa – Vũng Tàu","Region":"SouthEast2","Province":"Ba Ria - Vung Tau","District":"Vung Tau"}},{"type":"Point","coordinates":[106.317811,11.132309],"properties":{"Storecode":"653","Storename":"TNI - 15 ĐT782","Address":"15 đường ĐT782, ấp Phước Đức B, xã Phước Đông, huyện Gò Dầu, tỉnh Tây Ninh","Region":"SouthEast1","Province":"Tay Ninh","District":"Go Dau"}},{"type":"Point","coordinates":[104.886833,21.711294],"properties":{"Storecode":"654","Storename":"YBA - 6 Nguyễn Thái Học","Address":"6 đường Nguyễn Thái Học, phường Nguyễn Thái Học, thành phố Yên Bái, tỉnh Yên Bái","Region":"North","Province":"Yen Bai","District":"Yen Bai"}},{"type":"Point","coordinates":[107.989168,14.030503],"properties":{"Storecode":"655","Storename":"GLA - 841-843-845 Phạm Văn Đồng","Address":"841-843-845 Phạm Văn Đồng, phường Yên Thế, Thành Phố Pleiku, Tỉnh Gia Lai","Region":"Highland3","Province":"Gia Lai","District":"Pleiku"}},{"type":"Point","coordinates":[108.419272,12.008919],"properties":{"Storecode":"657","Storename":"LDO - 78 Langbiang","Address":"78 Langbiang, thị trấn Lạc Dương, huyện Lạc Dương, tỉnh Lâm Đồng","Region":"Highland1","Province":"Lam Dong","District":"Lac Duong"}},{"type":"Point","coordinates":[106.685856,10.770222],"properties":{"Storecode":"659","Storename":"HCM - 424A Nguyễn Thị Minh Khai","Address":"424A Nguyễn Thị Minh Khai, P5, Q3, Thành phố Hồ Chí Minh","Region":"HCM","Province":"Ho Chi Minh","District":"Quan 3"}},{"type":"Point","coordinates":[106.62555,10.816033],"properties":{"Storecode":"660","Storename":"HCM - 85-87 Tây Thạnh","Address":"85-87 Tây Thạnh, Phường Tây Thạnh, Quận Tân Phú, Thành Phố Hồ Chí Minh","Region":"HCM","Province":"Ho Chi Minh","District":"Tan Phu"}},{"type":"Point","coordinates":[105.978962,21.354893],"properties":{"Storecode":"661","Storename":"BGI - A16 Golden Mall","Address":"Kiot A16 chân đế TTTM Golden Mall, Thị Trấn Thắng, Huyện Hiệp Hoà, Tỉnh Bắc Giang","Region":"North","Province":"Bac Giang","District":"Hiep Hoa"}},{"type":"Point","coordinates":[106.739326,10.696546],"properties":{"Storecode":"662","Storename":"HCM - 1842A Huỳnh Tấn Phát","Address":"1842A Huỳnh Tấn Phát, Khu phố 6, Thị trấn Nhà Bè, Huyện Nhà Bè, Thành phố Hồ Chí Minh","Region":"HCM","Province":"Ho Chi Minh","District":"Nha Be"}},{"type":"Point","coordinates":[106.644364,10.761095],"properties":{"Storecode":"664","Storename":"HCM - 383C – 383C Bis Minh Phụng","Address":"383C – 383C Bis Minh Phụng, Phường 10, Quận 11, Thành phố Hồ Chí Minh.","Region":"HCM","Province":"Ho Chi Minh","District":"Quan 11"}},{"type":"Point","coordinates":[108.7934,15.11246],"properties":{"Storecode":"667","Storename":"QNG - 04 Nguyễn Trãi","Address":"04 Nguyễn Trãi, Phường Nghĩa Lộ, TP Quảng Ngãi, Tỉnh Quảng Ngãi","Region":"Central2","Province":"Quang Ngai","District":"Quang Ngai"}},{"type":"Point","coordinates":[105.585159,10.262769],"properties":{"Storecode":"669","Storename":"ĐTH - 6A/TK Quốc Lộ 54","Address":"6A/TK Quốc Lộ 54, ấp Tân Khánh, xã Tân Thành, huyện Lai Vung, tỉnh Đồng Tháp","Region":"Mekong2","Province":"Dong Thap","District":"Lai Vung"}},{"type":"Point","coordinates":[108.969626,11.58485],"properties":{"Storecode":"670","Storename":"NTH - 299 - 301 đường 21 tháng 8","Address":"299 - 301 đường 21 tháng 8 phường Phước Mỹ, Phan Rang- Tháp Chàm, Ninh Thuận","Region":"Central1","Province":"Ninh Thuan","District":"Thap Cham"}},{"type":"Point","coordinates":[107.996667,12.758798],"properties":{"Storecode":"671","Storename":"DLK - 36 Tỉnh lộ 685","Address":"36 tỉnh lộ 685, xã Ea bar, huyện Buôn Đôn, Tỉnh Đắk Lắk","Region":"Highland2","Province":"Dak Lak","District":"Buon Don"}},{"type":"Point","coordinates":[106.568626,10.762102],"properties":{"Storecode":"672","Storename":"HCM - A4/4A Trần Văn Giàu","Address":"A4/4A Trần Văn Giàu, Ấp 1, xã Lê Minh Xuân, huyện Bình Chánh, Thành phố Hồ Chí Minh","Region":"HCM","Province":"Ho Chi Minh","District":"Binh Chanh"}},{"type":"Point","coordinates":[106.748812,10.85382],"properties":{"Storecode":"673","Storename":"HCM - 213 Linh Đông","Address":"213 Linh Đông, KP3, phường Linh Đông, TP. Thủ Đức, Thành phố Hồ Chí Minh","Region":"HCM","Province":"Ho Chi Minh","District":"Thu Duc"}},{"type":"Point","coordinates":[108.954131,11.540472],"properties":{"Storecode":"674","Storename":"NTH - 119 QL1A","Address":"119 Quốc lộ 1A, Thị trấn Phước Dân, Huyện Ninh Phước, Tỉnh Ninh Thuận","Region":"Central1","Province":"Ninh Thuan","District":"Ninh Phuoc"}},{"type":"Point","coordinates":[105.873431,10.259081],"properties":{"Storecode":"678","Storename":"ĐTH - 96-98 QL80","Address":"96-98 QL80, khóm Phú Mỹ, thị trấn Cái Tàu Hạ, huyện Châu Thành, tỉnh Đồng Tháp.","Region":"Mekong2","Province":"Dong Thap","District":"Chau Thanh"}},{"type":"Point","coordinates":[107.569554,16.469819],"properties":{"Storecode":"679","Storename":"HUE - 39A Thạch Hãn","Address":"39A Thạch Hãn, phường Thuận Hòa, thành phố Huế, tỉnh Thừa Thiên Huế","Region":"Central3","Province":"Hue","District":"Hue"}},{"type":"Point","coordinates":[109.203296,12.288566],"properties":{"Storecode":"680","Storename":"KHO - 26 Điện Biên Phủ","Address":"26 Điện Biên Phủ, phường Vĩnh Hòa, thành phố Nha Trang, tỉnh Khánh Hòa","Region":"Central1","Province":"Khanh Hoa","District":"Nha Trang"}},{"type":"Point","coordinates":[107.570791,16.394065],"properties":{"Storecode":"681","Storename":"DON - 2089 Quốc Lộ 1A","Address":"2089 Quốc Lộ 1A, ấp 5, xã Xuân Tâm, huyện Xuân Lộc, tỉnh Đồng Nai","Region":"SouthEast2","Province":"Dong Nai","District":"Xuan Loc"}},{"type":"Point","coordinates":[106.574379,10.810236],"properties":{"Storecode":"682","Storename":"HCM - 2090 Vĩnh Lộc","Address":"2090 Vĩnh Lộc, Ấp 4, Xã Vĩnh Lộc B, huyện Bình Chánh, Thành phố Hồ Chí Minh","Region":"HCM","Province":"Ho Chi Minh","District":"Binh Chanh"}},{"type":"Point","coordinates":[106.590084,11.152887],"properties":{"Storecode":"683","Storename":"BDU - 101 Hùng Vương","Address":"101, đường Hùng Vương , phường Mỹ Phước , thị xã Bến Cát , tỉnh Bình Dương","Region":"SouthEast2","Province":"Binh Duong","District":"Ben cat"}},{"type":"Point","coordinates":[105.776003,19.803804],"properties":{"Storecode":"684","Storename":"THO - 300 - 302 Trần Phú","Address":"300 - 302 đường Trần Phú, phường Ba Đình, thành phố Thanh Hoá, tỉnh Thanh Hoá","Region":"North","Province":"Thanh Hoa","District":"Thanh Hoa"}},{"type":"Point","coordinates":[106.655774,10.718746],"properties":{"Storecode":"685","Storename":"HCM - B15/7 Quốc Lộ 50","Address":"B15/7 Quốc Lộ 50, ấp 3A, Xã Bình Hưng, Huyện Bình Chánh, TP.HCM","Region":"HCM","Province":"Ho Chi Minh","District":"Binh Chanh"}},{"type":"Point","coordinates":[106.69147,10.810841],"properties":{"Storecode":"686","Storename":"HCM - 307B-307D Lê Quang Định","Address":"307B-307D Lê Quang Định, Phường 7, Quận Bình Thạnh, Thành Phố Hồ Chí Minh","Region":"HCM","Province":"Ho Chi Minh","District":"Binh Thanh"}},{"type":"Point","coordinates":[106.693018,10.770919],"properties":{"Storecode":"687","Storename":"HCM - 9 – 11 – 13 Nguyễn Trãi","Address":"9 – 11 – 13 Nguyễn Trãi, Phường Bến Thành, Quận 1, Thành phố Hồ Chí Minh","Region":"HCM","Province":"Ho Chi Minh","District":"Quan 1"}},{"type":"Point","coordinates":[106.6675,10.791858],"properties":{"Storecode":"688","Storename":"HCM - 172 Đặng Văn Ngữ","Address":"172 Đặng Văn Ngữ, Phường 14, Quận Phú Nhuận, Thành Phố Hồ Chí Minh","Region":"HCM","Province":"Ho Chi Minh","District":"Phu Nhuan"}},{"type":"Point","coordinates":[106.707422,20.845497],"properties":{"Storecode":"689","Storename":"HAP-GO! Hải Phòng","Address":"GO! Hải Phòng, Ngã 5 Sân Bay, 20 Khu đô thị mới, Đông Khê, quận Ngô Quyền, TP Hải Phòng","Region":"North","Province":"Hai Phong","District":"Ngo Quyen"}},{"type":"Point","coordinates":[106.607017,10.758261],"properties":{"Storecode":"691","Storename":"HCM - 2 Mã Lò","Address":"02 đường Mã Lò, Khu phố 1, Phường Bình Trị Đông A, Quận Bình Tân, Thành phố Hồ Chí Minh","Region":"HCM","Province":"Ho Chi Minh","District":"Binh Tan"}},{"type":"Point","coordinates":[105.803797,9.922847],"properties":{"Storecode":"692","Storename":"HAG - J52 - J53","Address":"J52 - J53 khu TTTM Thị Trấn Ngã Sáu, đường Hùng Vương, Huyện Châu Thành, Tỉnh Hậu Giang","Region":"Mekong2","Province":"Hau Giang","District":"Chau Thanh"}},{"type":"Point","coordinates":[106.632572,10.803418],"properties":{"Storecode":"693","Storename":"HCM - 121-135/1 Tân Kỳ Tân Quý","Address":"121-135/1 Tân Kỳ Tân Quý, Phường Tân Sơn Nhì, Quận Tân Phú, Thành phố Hồ Chí Minh","Region":"HCM","Province":"Ho Chi Minh","District":"Tan Phu"}},{"type":"Point","coordinates":[108.249519,16.100975],"properties":{"Storecode":"694","Storename":"DNA - 08 Nguyễn Phan Vinh","Address":"08 Nguyễn Phan Vinh, Phường Thọ Quang, Quận Sơn Trà, TP Đà Nẵng","Region":"Central2","Province":"Da Nang","District":"Son Tra"}},{"type":"Point","coordinates":[106.744019,10.840741],"properties":{"Storecode":"695","Storename":"HCM - 582 Kha Vạn Cân","Address":"582 Đường Kha Vạn Cân, Phường Linh Đông, Thành phố Thủ Đức , Thành Phố Hồ Chí Minh","Region":"HCM","Province":"Ho Chi Minh","District":"Thu Duc"}},{"type":"Point","coordinates":[107.485933,11.507618],"properties":{"Storecode":"696","Storename":"LDO - 109-111 Đường 3/2","Address":"109-111 đường 3/2, thị trấn Đạ Tẻh, huyện Đạ Tẻh, tỉnh Lâm Đồng","Region":"Highland1","Province":"Lam Dong","District":"Da Teh"}},{"type":"Point","coordinates":[106.760947,10.846915],"properties":{"Storecode":"697","Storename":"HCM - 158 Đặng Văn Bi","Address":"158 Đặng Văn Bi, Khu phố 1, Phường Bình Thọ, Thành phố Thủ Đức, Thành phố Hồ Chí Minh","Region":"HCM","Province":"Ho Chi Minh","District":"Thu Duc"}},{"type":"Point","coordinates":[106.621203,11.245907],"properties":{"Storecode":"698","Storename":"BDU - 01 Đường NC","Address":"01 Đường NC, Khu phố Đồng Sổ, Thị trấn Lai Uyên, Huyện Bàu Bàng, Tỉnh Bình Dương","Region":"SouthEast2","Province":"Binh Duong","District":"Bau Bang"}},{"type":"Point","coordinates":[108.075939,12.816592],"properties":{"Storecode":"699","Storename":"DLK - 112-114 Hùng Vương","Address":"112-114 Hùng Vương, thị trấn Quảng Phú, huyện Cư M'gar, tỉnh Đắk Lắk","Region":"Highland2","Province":"Dak Lak","District":"Cu M'gar"}},{"type":"Point","coordinates":[106.689293,10.803333],"properties":{"Storecode":"700","Storename":"HCM - 55B Phan Đăng Lưu","Address":"55B Phan Đăng Lưu, Phường 07, Quận Phú Nhuận, Thành phố Hồ Chí Minh","Region":"HCM","Province":"Ho Chi Minh","District":"Phu Nhuan"}},{"type":"Point","coordinates":[106.561717,10.818797],"properties":{"Storecode":"702","Storename":"HCM - F2/29R - F3/221K2 Liên ấp 2-6","Address":"F2/29R - F3/221K2 Liên ấp 2-6, ấp 6, Xã Vĩnh Lộc A, Huyện Bình Chánh, Thành phố Hồ Chí Minh","Region":"HCM","Province":"Ho Chi Minh","District":"Binh Chanh"}},{"type":"Point","coordinates":[106.661995,10.757565],"properties":{"Storecode":"703","Storename":"HCM - 9 Tăng Bạt Hổ","Address":"9 Tăng Bạt Hổ, Phường 12, Quận 5, Thành phố Hồ Chí Minh","Region":"HCM","Province":"Ho Chi Minh","District":"Quan 5"}},{"type":"Point","coordinates":[106.776579,10.888363],"properties":{"Storecode":"704","Storename":"BDU - 44 Quốc Lộ 1K","Address":"44 Quốc Lộ 1K, P. Đông Hoà, TP. Dĩ An, tỉnh Bình Dương","Region":"SouthEast2","Province":"Binh Duong","District":"Di An"}},{"type":"Point","coordinates":[106.733906,10.725734],"properties":{"Storecode":"705","Storename":"HCM - 964 Huỳnh Tấn Phát","Address":"964 Huỳnh Tấn Phát, Phường Tân Phú, Quận 7, Thành phố Hồ Chí Minh.","Region":"HCM","Province":"Ho Chi Minh","District":"Quan 7"}},{"type":"Point","coordinates":[108.288808,15.829593],"properties":{"Storecode":"706","Storename":"QNA - 32 Quốc Lộ 1A Hương An","Address":"07 Quốc lộ 1A, tổ dân phố Hương An, huyện Quế Sơn, tỉnh Quảng Nam","Region":"Central2","Province":"Quang Nam","District":"Que Son"}},{"type":"Point","coordinates":[106.607722,10.65834],"properties":{"Storecode":"708","Storename":"HCM - D2/40B Đoàn Nguyễn Tuấn","Address":"D2/40B đường Đoàn Nguyễn Tuấn, ấp 4, xã Hưng Long , Huyện Bình Chánh, TPHCM","Region":"HCM","Province":"Ho Chi Minh","District":"Binh Chanh"}},{"type":"Point","coordinates":[106.361333,10.475571],"properties":{"Storecode":"709","Storename":"TGI - 169/1 QL1A","Address":"169/1 QL1A, ấp Tân Hòa, xã Tân Hương, huyện Châu Thành, Tiền Giang","Region":"Mekong1","Province":"Tien Giang","District":"Chau Thanh"}},{"type":"Point","coordinates":[106.115268,11.337684],"properties":{"Storecode":"711","Storename":"TNI - 438D-440 Bời Lời","Address":"438D - 440 đường Bời Lời, khu phố Ninh Trung, phường Ninh Sơn, TP Tây Ninh, tỉnh Tây Ninh","Region":"SouthEast1","Province":"Tay Ninh","District":"Tay Ninh"}},{"type":"Point","coordinates":[105.664142,21.086522],"properties":{"Storecode":"712","Storename":"HNI - 22-24 Nguyễn Thái Học","Address":"22-24 đường Nguyễn Thái Học, thị trấn Phùng, huyện Đan Phượng, thành phố Hà Nội","Region":"North","Province":"Ha Noi","District":"Dan Phuong"}},{"type":"Point","coordinates":[108.889437,15.189417],"properties":{"Storecode":"713","Storename":"QNG - Mỹ Lại","Address":"Thửa đất 758, thôn Mỹ Lại, xã Tịnh Khê, TP Quảng Ngãi, Quảng Ngãi","Region":"Central2","Province":"Quang Ngai","District":"Quang Ngai"}},{"type":"Point","coordinates":[106.884231,10.965212],"properties":{"Storecode":"714","Storename":"DON - 20/83 Lê Đại Hành","Address":"20/83 Lê Đại Hành, khu phố 12, phường Hố Nai, thành phố Biên Hoà, tỉnh Đồng Nai","Region":"SouthEast2","Province":"Dong Nai","District":"Bien Hoa"}},{"type":"Point","coordinates":[106.608415,10.80564],"properties":{"Storecode":"715","Storename":"HCM - 659 Hương Lộ 3","Address":"659 Hương lộ 3, Khu phố 10, Phường Bình Hưng Hòa, Quận Bình Tân, Thành phố Hồ Chí Minh","Region":"HCM","Province":"Ho Chi Minh","District":"Binh Tan"}},{"type":"Point","coordinates":[106.767069,11.100571],"properties":{"Storecode":"716","Storename":"BDU - Hội Nghĩa","Address":"xã Hội Nghĩa, Thị xã Tân Uyên, Tỉnh Bình Dương","Region":"SouthEast2","Province":"Binh Duong","District":"Tan Uyen"}},{"type":"Point","coordinates":[106.485987,10.641628],"properties":{"Storecode":"717","Storename":"LAN - 5 Nguyễn Văn Siêu","Address":"05 Nguyễn Văn Siêu, khu phố 2, thị trấn Bến Lức, huyện Bến Lức, tỉnh Long An","Region":"Mekong1","Province":"Long An","District":"Ben Luc"}},{"type":"Point","coordinates":[106.130045,11.276859],"properties":{"Storecode":"718","Storename":"TNI - 138 Tôn Đức Thắng","Address":"138 Tôn Đức Thắng, Phường Long Thành Trung, Thị Xã Hoà Thành, Tỉnh Tây Ninh","Region":"SouthEast1","Province":"Tay Ninh","District":"Hoa Thanh"}},{"type":"Point","coordinates":[108.202167,11.735245],"properties":{"Storecode":"719","Storename":"LDO - Liên Trung","Address":"thửa đất số 821, tờ bản đồ số 7, thôn Liên Trung, xã Tân Hà, huyện Lâm Hà, tỉnh Lâm Đồng","Region":"Highland1","Province":"Lam Dong","District":"Lam Ha"}},{"type":"Point","coordinates":[106.645749,10.784535],"properties":{"Storecode":"720","Storename":"HCM - 191 Ni Sư Huỳnh Liên","Address":"191 Ni Sư Huỳnh Liên, Phường 10, Quận Tân Bình, Thành phố Hồ Chí Minh","Region":"HCM","Province":"Ho Chi Minh","District":"Tan Binh"}},{"type":"Point","coordinates":[105.674456,18.66607],"properties":{"Storecode":"721","Storename":"NAN - Số 2 Quang Trung","Address":"2 Quang Trung, phường Quang Trung, Thành phố Vinh, Nghệ An","Region":"North","Province":"Nghe An","District":"Vinh"}},{"type":"Point","coordinates":[106.573457,10.983818],"properties":{"Storecode":"722","Storename":"HCM - 73 Tỉnh Lộ 8","Address":"73 Tỉnh Lộ 8, Xã Tân Thạnh Tây, Huyện Củ Chi, Thành phố Hồ Chí Minh","Region":"HCM","Province":"Ho Chi Minh","District":"Cu Chi"}},{"type":"Point","coordinates":[106.941318,10.758527],"properties":{"Storecode":"723","Storename":"DON - 114 Lý Thái Tổ","Address":"114 Lý Thái Tổ, Ấp Trầu, Phước Thiền, Nhơn Trạch, Đồng Nai","Region":"SouthEast2","Province":"Dong Nai","District":"Nhon Trach"}},{"type":"Point","coordinates":[106.69659,10.812708],"properties":{"Storecode":"724","Storename":"HCM - 170A Cư xá Bình Hòa","Address":"170A Cư xá Bình Hòa, Nơ Trang Long, Phường 12, Quận Bình Thạnh, Thành phố Hồ Chí Minh","Region":"HCM","Province":"Ho Chi Minh","District":"Binh Thanh"}},{"type":"Point","coordinates":[106.101778,11.300556],"properties":{"Storecode":"725","Storename":"TNI - 154-156 đường 30/4","Address":"154-156 đường 30/4, khu phố 4, phường 3, TP Tây Ninh, tỉnh Tây Ninh","Region":"SouthEast1","Province":"Tay Ninh","District":"Tay Ninh"}},{"type":"Point","coordinates":[106.718664,10.94185],"properties":{"Storecode":"726","Storename":"BDU - DC79 đường DA6","Address":"Ô 25 – 27, lô DC79, đường DA6, KDC Việt - Sing, Phường Thuận Giao, Thành phố Thuận An, Tỉnh Bình Dương","Region":"SouthEast2","Province":"Binh Duong","District":"Thuan An"}},{"type":"Point","coordinates":[106.684534,10.828441],"properties":{"Storecode":"727","Storename":"HCM - 783 Phan Văn Trị","Address":"783 Phan Văn Trị, Phường 7, Quận Gò Vấp, Thành phố Hồ Chí Minh","Region":"HCM","Province":"Ho Chi Minh","District":"Go Vap"}},{"type":"Point","coordinates":[107.992709,13.979071],"properties":{"Storecode":"728","Storename":"GLA - 113 Hai Bà Trưng","Address":"113A, 113B,113C Hai Bà Trưng, phường Diên Hồng, thành phố Pleiku, tỉnh Gia Lai","Region":"Highland3","Province":"Gia Lai","District":"Pleiku"}},{"type":"Point","coordinates":[106.724303,10.983805],"properties":{"Storecode":"729","Storename":"BDU - 4/4 Thủ Khoa Huân","Address":"04/4 đường Thủ Khoa Huân, Khu Phố Bình Phước A, Phường Bình Chuẩn, Thành Phố Thuận An, Tỉnh Bình Dương.","Region":"SouthEast2","Province":"Binh Duong","District":"Thuan An"}},{"type":"Point","coordinates":[105.597678,9.564438],"properties":{"Storecode":"730","Storename":"STR - 1 Mai Thanh Thế","Address":"1, Đường Mai Thanh Thế, khóm 1, phường 1, TX. Ngã Năm, tỉnh Sóc Trăng","Region":"Mekong2","Province":"Soc Trang","District":"Nga Nam"}},{"type":"Point","coordinates":[106.9659,10.411246],"properties":{"Storecode":"731","Storename":"HCM - 451/2A Đào Cử","Address":"451/2A Đào Cử, Khu phố Miễu Nhì, Thị trấn Cần Thạnh, Huyện Cần Giờ, Thành phố Hồ Chí Minh","Region":"HCM","Province":"Ho Chi Minh","District":"Can Gio"}},{"type":"Point","coordinates":[106.727513,10.659093],"properties":{"Storecode":"732","Storename":"HCM - 546 Nguyễn Văn Tạo","Address":"546 Nguyễn Văn Tạo, Ấp 1, xã Long Thới, huyện Nhà Bè, Thành phố Hồ Chí Minh","Region":"HCM","Province":"Ho Chi Minh","District":"Nha Be"}},{"type":"Point","coordinates":[107.592579,16.455569],"properties":{"Storecode":"733","Storename":"HUE - 1 Trần Phú","Address":"01 Trần Phú, phường Phước Vĩnh, Thành phố Huế","Region":"Central3","Province":"Hue","District":"Hue"}},{"type":"Point","coordinates":[106.632996,10.814087],"properties":{"Storecode":"734","Storename":"HCM - 686 Trường Chinh","Address":"686 Trường Chinh, Phường 15, Quận Tân Bình, Thành Phố Hồ Chí Minh","Region":"HCM","Province":"Ho Chi Minh","District":"Tan Binh"}},{"type":"Point","coordinates":[107.278196,11.042016],"properties":{"Storecode":"736","Storename":"DON - 36/3 DT763","Address":"36/3 DT763, ấp 1, xã Suối Nho, huyện Định Quán, tỉnh Đồng Nai","Region":"SouthEast2","Province":"Dong Nai","District":"Dinh Quan"}},{"type":"Point","coordinates":[107.593997,16.463736],"properties":{"Storecode":"737","Storename":"HUE - 35 Hà Nội","Address":"35 Hà Nội, phường Phú Nhuận, thành phố Huế, tỉnh Thừa Thiên Huế","Region":"Central3","Province":"Hue","District":"Hue"}},{"type":"Point","coordinates":[105.845539,10.526141],"properties":{"Storecode":"738","Storename":"ĐTH - Gò Tháp","Address":"Gò Tháp, khóm 3, thị trấn Mỹ An, huyện Tháp Mười, tỉnh Đồng Tháp","Region":"Mekong2","Province":"Dong Thap","District":"Thap Muoi"}},{"type":"Point","coordinates":[106.805417,10.867838],"properties":{"Storecode":"739","Storename":"HCM - 21 Đường 154","Address":"Số 21 Đường 154, Phường Tân Phú, Thành phố Thủ Đức, Thành phố Hồ Chí Minh","Region":"HCM","Province":"Ho Chi Minh","District":"Thu Duc"}},{"type":"Point","coordinates":[106.861262,10.935935],"properties":{"Storecode":"740","Storename":"DON - 93 Vũ Hồng Phô","Address":"93 Vũ Hồng Phô, Khu phố 2, Phường Bình Đa, Thành phố Biên Hòa, Tỉnh Đồng Nai","Region":"SouthEast2","Province":"Dong Nai","District":"Bien Hoa"}},{"type":"Point","coordinates":[109.023364,11.548569],"properties":{"Storecode":"741","Storename":"NTH - 153 Hải Thượng Lãn Ông","Address":"153 Hải Thượng Lãn Ông, phường Đông Hải, thành phố Phan Rang Tháp Chàm, Ninh Thuận","Region":"Central1","Province":"Ninh Thuan","District":"Thap Cham"}},{"type":"Point","coordinates":[105.540475,10.536634],"properties":{"Storecode":"742","Storename":"ĐTH - QL30","Address":"QL 30, Ấp Bình Chánh, Xã Bình Thành, Huyện Thanh Bình, Tỉnh Đồng Tháp.","Region":"Mekong2","Province":"Dong Thap","District":"Thanh Binh"}},{"type":"Point","coordinates":[106.798607,10.846715],"properties":{"Storecode":"743","Storename":"HCM - 597 Lê Văn Việt","Address":"597 Lê Văn Việt, Khu phố 5, Phường Tăng Nhơn Phú A, Thành phố Thủ Đức, Thành phố Hồ Chí Minh.","Region":"HCM","Province":"Ho Chi Minh","District":"Thu Duc"}},{"type":"Point","coordinates":[106.569559,10.760458],"properties":{"Storecode":"744","Storename":"HCM - G16/21 Trần Đại Nghĩa","Address":"G16/21 Trần Đại Nghĩa, Ấp 7, Xã Lê Minh Xuân, Huyện Bình Chánh, Thành phố Hồ Chí Minh","Region":"HCM","Province":"Ho Chi Minh","District":"Binh Chanh"}},{"type":"Point","coordinates":[106.809066,10.999049],"properties":{"Storecode":"745","Storename":"DON - 344F TL768","Address":"344F, Tỉnh lộ 768, ấp Bình Phước, xã Tân Bình, huyện Vĩnh Cửu, tỉnh Đồng Nai","Region":"SouthEast2","Province":"Dong Nai","District":"Vinh Cuu"}},{"type":"Point","coordinates":[105.789249,20.982912],"properties":{"Storecode":"746","Storename":"HNI - 16B-4 Nguyễn Văn Lộc","Address":"16B-4 phố Nguyễn Văn Lộc, phường Mộ Lao, quận Hà Đông, thành phố Hà Nội","Region":"North","Province":"Ha Noi","District":"Ha Dong"}},{"type":"Point","coordinates":[105.793227,21.007402],"properties":{"Storecode":"747","Storename":"HNI - GO! Thăng Long","Address":"Go! Thăng Long, 222 đường Trần Duy Hưng, Trung Hòa, Cầu Giấy, Hà Nội","Region":"North","Province":"Ha Noi","District":"Cau Giay"}},{"type":"Point","coordinates":[108.335631,12.507577],"properties":{"Storecode":"748","Storename":"DLK - 180 Nguyễn Tất Thành","Address":"180 Nguyễn Tất Thành, thị trấn Krông Kmar, huyện Krông Bông, tỉnh Đắk Lắk.","Region":"Highland2","Province":"Dak Lak","District":"Krong Bong"}},{"type":"Point","coordinates":[108.470111,11.956337],"properties":{"Storecode":"749","Storename":"LDO - 81 Mê Linh","Address":"81 Mê Linh, Phường 9, Thành phố Đà Lạt, Lâm Đồng","Region":"Highland1","Province":"Lam Dong","District":"Da Lat"}},{"type":"Point","coordinates":[106.793275,17.221772],"properties":{"Storecode":"750","Storename":"QBI - 01 Tây Hồ","Address":"01 Tây Hồ, thị trấn Kiến Giang, huyện Lệ Thủy, tỉnh Quảng Bình","Region":"Central3","Province":"Quang Binh","District":"Le Thuy"}},{"type":"Point","coordinates":[107.107091,10.387279],"properties":{"Storecode":"751","Storename":"BVT - 177 Nguyễn Hữu Cảnh","Address":"177 Nguyễn Hữu Cảnh, Phường Thắng Nhất, Thành phố Vũng Tàu, Tỉnh Bà Rịa – Vũng Tàu","Region":"SouthEast2","Province":"Ba Ria - Vung Tau","District":"Vung Tau"}},{"type":"Point","coordinates":[105.773922,10.051896],"properties":{"Storecode":"752","Storename":"CTO - 166 Cách Mạng Tháng 8","Address":"166 Đường Cách Mạng Tháng 8, P. Cái Khế, Q. Ninh Kiều, Tp. Cần Thơ","Region":"Mekong2","Province":"Can Tho","District":"Ninh Kieu"}},{"type":"Point","coordinates":[106.680222,20.921048],"properties":{"Storecode":"753","Storename":"HAP - 70 Trần Hưng Đạo","Address":"70 đường Trần Hưng Đạo, thị trấn Núi Đèo, huyện Thủy Nguyên, thành phố Hải Phòng","Region":"North","Province":"Hai Phong","District":"Thuy Nguyen"}},{"type":"Point","coordinates":[106.088586,11.309321],"properties":{"Storecode":"754","Storename":"TNI - 134 Trưng Nữ Vương","Address":"134 Trưng Nữ Vương, Khu phố 1, Phường 2, Thành phố Tây Ninh, tỉnh Tây Ninh","Region":"SouthEast1","Province":"Tay Ninh","District":"Tay Ninh"}},{"type":"Point","coordinates":[106.513248,11.091636],"properties":{"Storecode":"755","Storename":"HCM - 978 Tỉnh Lộ 15","Address":"978 Tỉnh Lộ 15, ấp Chợ Cũ, xã An Nhơn Tây, huyện Củ Chi, Thành phố Hồ Chí Minh","Region":"HCM","Province":"Ho Chi Minh","District":"Cu Chi"}},{"type":"Point","coordinates":[108.955804,14.811915],"properties":{"Storecode":"756","Storename":"QNG - 458-460 Nguyễn Nghiêm","Address":"458-460 Nguyễn Nghiêm, thị xã Đức Phổ, huyện Đức Phổ, tỉnh Quảng Ngãi","Region":"Central2","Province":"Quang Ngai","District":"Duc Pho"}},{"type":"Point","coordinates":[108.222724,16.004927],"properties":{"Storecode":"757","Storename":"DNA - 90 Võ Chí Công","Address":"90 Võ Chí Công, P. Hoà Xuân, Q. Cẩm Lệ, TP Đà Nẵng","Region":"Central2","Province":"Da Nang","District":"Cam Le"}},{"type":"Point","coordinates":[106.586468,10.771756],"properties":{"Storecode":"758","Storename":"HCM - 50B Tây Lân","Address":"50B Tây Lân, Khu phố 7, Phường Bình Trị Đông A, Quận Bình Tân, Thành phố Hồ Chí Minh.","Region":"HCM","Province":"Ho Chi Minh","District":"Binh Tan"}},{"type":"Point","coordinates":[106.103799,11.326529],"properties":{"Storecode":"760","Storename":"TNI - 483 đường 30 tháng 4","Address":"483 đường Ba Mươi Tháng 4, khu phố 1, Phường 1, Thành phố Tây Ninh, tỉnh Tây Ninh","Region":"SouthEast1","Province":"Tay Ninh","District":"Tay Ninh"}},{"type":"Point","coordinates":[106.640258,10.863122],"properties":{"Storecode":"761","Storename":"HCM - 257 Nguyễn Thị Đặng","Address":"257 Nguyễn Thị Đặng (số cũ 257 TTH22), Khu Phố 2, Phường Tân Thới Hiệp, Quận 12, TP. Hồ Chí Minh","Region":"HCM","Province":"Ho Chi Minh","District":"Quan 12"}},{"type":"Point","coordinates":[106.704539,11.122872],"properties":{"Storecode":"762","Storename":"BDU - 802 DB4","Address":"thửa đất số 802, tờ bản đồ số 20, đường DB4, khu phố 4, Phường Vĩnh Tân, Thị xã Tân Uyên, Tỉnh Bình Dương.","Region":"SouthEast2","Province":"Binh Duong","District":"Tan Uyen"}},{"type":"Point","coordinates":[106.666714,10.768263],"properties":{"Storecode":"763","Storename":"HCM - 218 Thành Thái","Address":"218 Thành Thái, Phường 12, Quận 10, Thành phố Hồ Chí Minh","Region":"HCM","Province":"Ho Chi Minh","District":"Quan 10"}},{"type":"Point","coordinates":[106.658996,10.752895],"properties":{"Storecode":"764","Storename":"HCM - 94 Châu Văn Liêm","Address":"94 Châu Văn Liêm, Phường 11, Quận 5, Thành phố Hồ Chí Minh","Region":"HCM","Province":"Ho Chi Minh","District":"Quan 5"}},{"type":"Point","coordinates":[108.267592,12.917861],"properties":{"Storecode":"765","Storename":"DLK - 68 Trần Hưng Đạo","Address":"68 Trần Hưng Đạo, phường An Lạc, thị xã Buôn Hồ, tỉnh Đắk Lắk.","Region":"Highland2","Province":"Dak Lak","District":"Buon Ho"}},{"type":"Point","coordinates":[108.219727,16.060598],"properties":{"Storecode":"766","Storename":"DNA - 81 - 83 Nguyễn Văn Linh","Address":"81-83 Nguyễn Văn Linh, Phường Phước Ninh, Q.Hải Châu, TP Đà Nẵng","Region":"Central2","Province":"Da Nang","District":"Hai Chau"}},{"type":"Point","coordinates":[106.188209,9.527348],"properties":{"Storecode":"767","Storename":"STR - Nam Sông Hậu","Address":"Nam Sông Hậu, Ấp Đầu Giồng, TT. Trần Đề, Huyện Trần Đề, Tỉnh Sóc Trăng","Region":"Mekong2","Province":"Soc Trang","District":"Tran De"}},{"type":"Point","coordinates":[106.617827,10.74346],"properties":{"Storecode":"768","Storename":"HCM - 15-17-19 Đường số 1","Address":"15-17-19 Đường số 1, Khu Phố 4, Phường An Lạc A, Quận Bình Tân, Thành phố Hồ Chí Minh","Region":"HCM","Province":"Ho Chi Minh","District":"Binh Tan"}},{"type":"Point","coordinates":[108.028712,12.695162],"properties":{"Storecode":"769","Storename":"DLK - 2 tỉnh lộ 5","Address":"2 tỉnh lộ 5, xã Cư Ê Bur, thành phố Buôn Ma Thuột, Đắk Lắk","Region":"Highland2","Province":"Dak Lak","District":"Buon Me Thuot"}},{"type":"Point","coordinates":[105.90081,10.116607],"properties":{"Storecode":"770","Storename":"VLO - Đường số 7","Address":"Đường số 7, Khu đô thị mới Song Phú, ấp Phú Ninh, xã Song Phú, huyện Tam Bình, tỉnh Vĩnh Long","Region":"Mekong2","Province":"Vinh Long","District":"Tam Binh"}},{"type":"Point","coordinates":[106.753032,10.916425],"properties":{"Storecode":"771","Storename":"BDU - 130 Nguyễn Thị Minh Khai","Address":"130 Nguyễn Thị Minh Khai, khu phố Tân Long, phường Tân Đông Hiệp, thị xã Dĩ An, tỉnh Bình Dương","Region":"SouthEast2","Province":"Binh Duong","District":"Di An"}},{"type":"Point","coordinates":[107.919703,14.515156],"properties":{"Storecode":"772","Storename":"KTU - 473 Hùng Vương","Address":"473 Hùng Vương, tổ dân phố 4A, thị trấn Đắk Hà, Huyện Đắk Hà, tỉnh Kon Tum","Region":"Highland3","Province":"Kon Tum","District":"Dak Ha"}},{"type":"Point","coordinates":[106.674139,10.790892],"properties":{"Storecode":"774","Storename":"HCM - 129-129A Huỳnh Văn Bánh","Address":"129 - 129A Huỳnh Văn Bánh, Phường 11, Quận Phú Nhuận, TP. Hồ Chí Minh","Region":"HCM","Province":"Ho Chi Minh","District":"Phu Nhuan"}},{"type":"Point","coordinates":[106.754645,10.834948],"properties":{"Storecode":"776","Storename":"HCM - 56A Đường số 2","Address":"56A Đường số 2, Khu phố 8, Phường Trường Thọ, Thành phố Thủ Đức, Thành phố Hồ Chí Minh","Region":"HCM","Province":"Ho Chi Minh","District":"Thu Duc"}},{"type":"Point","coordinates":[106.715557,10.81234],"properties":{"Storecode":"777","Storename":"HCM - 760 Xô Viết Nghệ Tĩnh","Address":"760 Xô Viết Nghệ Tĩnh, Phường 25, Quận Bình Thạnh, Thành Phố Hồ Chí Minh","Region":"HCM","Province":"Ho Chi Minh","District":"Binh Thanh"}},{"type":"Point","coordinates":[106.6886,10.82966],"properties":{"Storecode":"778","Storename":"HCM - C38 Dương Quảng Hàm","Address":"C38 Dương Quảng Hàm, Phường 07, Quận Gò Vấp, Thành phố Hồ Chí Minh","Region":"HCM","Province":"Ho Chi Minh","District":"Go Vap"}},{"type":"Point","coordinates":[106.586638,10.755807],"properties":{"Storecode":"779","Storename":"HCM - 4423 Nguyễn Cửu Phú","Address":"4423 Nguyễn Cửu Phú, Khu Phố 4, Phường Tân Tạo A, Quận Bình Tân, Thành Phố Hồ Chí Minh","Region":"HCM","Province":"Ho Chi Minh","District":"Binh Tan"}},{"type":"Point","coordinates":[106.599937,10.901367],"properties":{"Storecode":"783","Storename":"HCM - 27/4A Đỗ Văn Dậy","Address":"27/4A đường Đỗ Văn Dậy, Ấp Tân Thới 1, Xã Tân Hiệp, Huyện Hóc Môn, Thành Phố Hồ Chí Minh","Region":"HCM","Province":"Ho Chi Minh","District":"Hoc Mon"}},{"type":"Point","coordinates":[106.775137,10.87892],"properties":{"Storecode":"785","Storename":"HCM - 83 Đường số 8","Address":"Số 83 Đường số 8, Khu phố 1, Phường Linh Xuân, Thành Phố Thủ Đức, Thành Phố Hồ Chí Minh","Region":"HCM","Province":"Ho Chi Minh","District":"Thu Duc"}},{"type":"Point","coordinates":[105.92922,9.962398],"properties":{"Storecode":"786","Storename":"VLO - 60/45D Thống Chế Điều Bát","Address":"60/45D Đường Thống Chế Điều Bát, Khu 3, thị trấn Trà Ôn, huyện Trà Ôn, tỉnh Vĩnh Long.","Region":"Mekong2","Province":"Vinh Long","District":"Tra On"}},{"type":"Point","coordinates":[107.896767,12.589841],"properties":{"Storecode":"787","Storename":"DNK - 325 Nguyễn Tất Thành","Address":"325 Nguyễn Tất Thành, thị trấn Ea T'ling, huyện Cư Jút, tỉnh Đắk Nông.","Region":"Highland2","Province":"Dak Nong","District":"Cu Jut"}},{"type":"Point","coordinates":[106.854789,10.98029],"properties":{"Storecode":"788","Storename":"DON - 82A Nguyễn Phúc Chu","Address":"82A Nguyễn Phúc Chu, Phường Trảng Dài, Thành phố Biên Hòa, Tỉnh Đồng Nai.","Region":"SouthEast2","Province":"Dong Nai","District":"Bien Hoa"}},{"type":"Point","coordinates":[106.953294,10.952833],"properties":{"Storecode":"789","Storename":"DON - 372 Bắc Sơn – Long Thành","Address":"372 Bắc Sơn – Long Thành, thôn Đông Bình, Ấp Bùi Chu, Xã Bắc Sơn, Huyện Trảng Bom, tỉnh Đồng Nai.","Region":"SouthEast2","Province":"Dong Nai","District":"Trang Bom"}},{"type":"Point","coordinates":[106.393308,10.892802],"properties":{"Storecode":"790","Storename":"LAN - 101 Quốc lộ N2","Address":"101, đường QL N2, ấp Bình Thủy, xã Hòa Khánh Đông, huyện Đức Hòa, tỉnh Long An","Region":"Mekong1","Province":"Long An","District":"Duc Hoa"}},{"type":"Point","coordinates":[107.01556,17.063359],"properties":{"Storecode":"791","Storename":"QTR - 36 Lê Duẫn","Address":"36 Lê Duẫn, khóm Hữu Nghị, thị trấn Hồ Xá, huyện Vĩnh Linh, tỉnh Quảng Trị","Region":"Central3","Province":"Quang Tri","District":"Vinh Linh"}},{"type":"Point","coordinates":[106.712613,10.792439],"properties":{"Storecode":"792","Storename":"HCM - A009 120-120B Ngô Tất Tố","Address":"A009 Lô A (tầng trệt) chung cư, số 120-120B Ngô Tất Tố, Phường.19, Quận Bình Thạnh, TPHCM","Region":"HCM","Province":"Ho Chi Minh","District":"Binh Thanh"}},{"type":"Point","coordinates":[109.070584,12.15272],"properties":{"Storecode":"793","Storename":"KHO - Thôn Dầu Sơn","Address":"Thửa đất số 236, tờ bản đồ số 24, thôn Dầu Sơn, xã Suối Tân, huyện Cam Lâm, tỉnh Khánh Hòa.","Region":"Central1","Province":"Khanh Hoa","District":"Cam Lam"}},{"type":"Point","coordinates":[106.942643,10.758907],"properties":{"Storecode":"794","Storename":"DON - 771 Hùng Vương","Address":"771 Hùng Vương, tổ 10, ấp 1, xã Long Thọ, huyện Nhơn Trạch, tỉnh Đồng Nai.","Region":"SouthEast2","Province":"Dong Nai","District":"Nhon Trach"}},{"type":"Point","coordinates":[106.593282,10.712716],"properties":{"Storecode":"795","Storename":"HCM - 223 Hưng Nhơn","Address":"223 Đường Hưng Nhơn, Ấp 3, Xã Tân Kiên, Huyện Bình Chánh, Thành Phố Hồ Chí Minh","Region":"HCM","Province":"Ho Chi Minh","District":"Binh Chanh"}},{"type":"Point","coordinates":[109.199193,13.580906],"properties":{"Storecode":"796","Storename":"PYN - 222-224 Phạm Văn Đồng","Address":"222-224 Phạm Văn Đồng, khu phố Long Hải Nam, Phường Xuân Phú, TX Sông Cầu, Tỉnh Phú Yên","Region":"Central2","Province":"Phu Yen","District":"Song Cau"}},{"type":"Point","coordinates":[106.061079,9.870265],"properties":{"Storecode":"798","Storename":"TVI - 172-174 Đường 30/4","Address":"172-174, Đường 30/4, Khóm 4, Thị trấn Cầu Kè, Huyện Cầu Kè, Tỉnh Trà Vinh","Region":"Mekong2","Province":"Tra Vinh","District":"Cau Ke"}},{"type":"Point","coordinates":[108.137017,15.996636],"properties":{"Storecode":"800","Storename":"DNA - 1390 Quảng Xương","Address":"Thửa đất số 1390, tờ bản đồ số 7, đường Quảng Xương, thôn Túy Loan, xã Hòa Phong, huyện Hòa Vang, thành phố Đà Nẵng","Region":"Central2","Province":"Da Nang","District":"Hoa Vang"}},{"type":"Point","coordinates":[106.874951,10.954382],"properties":{"Storecode":"801","Storename":"DON - 19/68 đường 643","Address":"19/68 đường 643 – Xa lộ Hà Nội, Khu phố 1, Phường Long Bình, Thành phố Biên Hòa, Tỉnh Đồng Nai.","Region":"SouthEast2","Province":"Dong Nai","District":"Bien Hoa"}},{"type":"Point","coordinates":[109.132042,12.494761],"properties":{"Storecode":"802","Storename":"KHO - 182 Trần Quý Cáp","Address":"182 Trần Quý Cáp, phường Ninh Hiệp, thị xã Ninh Hòa, tỉnh Khánh Hòa","Region":"Central1","Province":"Khanh Hoa","District":"Ninh Hoa"}},{"type":"Point","coordinates":[106.684019,10.86567],"properties":{"Storecode":"804","Storename":"HCM - 71 Thạnh Lộc 16","Address":"71 Thạnh Lộc 16, Phường Thạnh Lộc, Quận 12, TP Hồ Chí Minh","Region":"HCM","Province":"Ho Chi Minh","District":"Quan 12"}},{"type":"Point","coordinates":[108.208745,16.028974],"properties":{"Storecode":"805","Storename":"DNA - 16-B4.1 Nguyễn Hữu Thọ","Address":"16-B4.1, tờ bản đồ số 464/98 ĐC-ND, đường Nguyễn Hữu Thọ, phường Khuê Trung, Quận Cẩm Lệ, thành phố Đà Nẵng","Region":"Central2","Province":"Da Nang","District":"Cam Le"}},{"type":"Point","coordinates":[107.185137,16.749701],"properties":{"Storecode":"807","Storename":"QTR - 217 - 219 Trần Hưng Đạo","Address":"217-219 Trần Hưng Đạo, phường 2, thị xã Quảng Trị, tỉnh Quảng Trị","Region":"Central3","Province":"Quang Tri","District":"Quang Tri"}},{"type":"Point","coordinates":[108.441901,11.95476],"properties":{"Storecode":"808","Storename":"LDO - 12 Nguyễn Công Trứ","Address":"12 Nguyễn Công Trứ, phường 8, Thành phố Đà Lạt tỉnh Lâm Đồng","Region":"Highland1","Province":"Lam Dong","District":"Da lat"}},{"type":"Point","coordinates":[106.633436,11.046769],"properties":{"Storecode":"810","Storename":"BDU - 103 Quốc Lộ 13","Address":"Thửa đất số 103, tờ bản đồ số 26, đường Quốc Lộ 13, Phường Tân Định, thị xã Bến Cát, Tỉnh Bình Dương.","Region":"SouthEast2","Province":"Binh Duong","District":"Ben cat"}},{"type":"Point","coordinates":[106.775472,10.83141],"properties":{"Storecode":"811","Storename":"HCM - 159 Tăng Nhơn Phú","Address":"159 đường Tăng Nhơn Phú , Khu phố 3, Phường Phước Long B, Thành phố Thủ Đức, Thành phố Hồ Chí Minh","Region":"HCM","Province":"Ho Chi Minh","District":"Thu Duc"}},{"type":"Point","coordinates":[105.754332,10.021404],"properties":{"Storecode":"812","Storename":"CTO - 222 Nguyễn Hiền","Address":"222 Đường Nguyễn Hiền, Phường An Khánh, Quận Ninh Kiều, Thành phố Cần Thơ","Region":"Mekong2","Province":"Can Tho","District":"Ninh Kieu"}},{"type":"Point","coordinates":[107.888008,13.060934],"properties":{"Storecode":"813","Storename":"DLK - 48 Hùng Vương","Address":"48 Hùng Vương, tổ dân phố hòa Bình, thị trấn Ea Súp, huyện Ea súp, tỉnh Đắk Lắk.","Region":"Highland2","Province":"Dak Lak","District":"Ea Sup"}},{"type":"Point","coordinates":[106.564157,21.367958],"properties":{"Storecode":"815","Storename":"BGI - 315 Thân Cảnh Phúc","Address":"315 đường Thân Cảnh Phúc Tổ dân phố Trần Hưng Đạo, thị trấn Chũ, huyện Lục Ngạn, tỉnh Bắc Giang","Region":"North","Province":"Bac Giang","District":"Luc Ngan"}},{"type":"Point","coordinates":[106.945533,10.741578],"properties":{"Storecode":"816","Storename":"DON - 292 Hùng Vương","Address":"292 Hùng Vương, Khu phố Phước Kiểng, Thị trấn Hiệp Phước, Huyện Nhơn Trạch, tỉnh Đồng Nai","Region":"SouthEast2","Province":"Dong Nai","District":"Nhon Trach"}},{"type":"Point","coordinates":[106.879629,10.940547],"properties":{"Storecode":"817","Storename":"DON - 376 Hoàng Bá Bích","Address":"376 Hoàng Bá Bích, Khu phố 5A, Phường Long Bình, Thành phố Biên Hoà, Tỉnh Đồng Nai","Region":"SouthEast2","Province":"Dong Nai","District":"Bien Hoa"}},{"type":"Point","coordinates":[106.814578,11.744152],"properties":{"Storecode":"818","Storename":"BPH - 69 DT757","Address":"Thửa đất số 69, Tờ bản đồ 12, ĐT 757, Thôn Tân Lực, Xã Bù Nho, Huyện Phú Riềng, Tỉnh Bình Phước.","Region":"SouthEast2","Province":"Binh Phuoc","District":"Phu Rieng"}},{"type":"Point","coordinates":[107.292873,10.432879],"properties":{"Storecode":"819","Storename":"BVT - 2/8 Đường Võ Thị Sáu","Address":"2/8, Đường Võ Thị Sáu, Khu phố Hải Tân, Thị trấn Phước Hải, Huyện Đất Đỏ, Tỉnh Bà Rịa-Vũng Tàu","Region":"SouthEast2","Province":"Ba Ria - Vung Tau","District":"Dat Do"}},{"type":"Point","coordinates":[105.155347,10.254974],"properties":{"Storecode":"820","Storename":"AGI - 224 Nguyễn Thị Hạnh","Address":"Số 224, Nguyễn Thị Hạnh, TT. Óc Eo, huyện Thoại Sơn, tỉnh An Giang","Region":"Mekong2","Province":"An Giang","District":"Thoai Son"}},{"type":"Point","coordinates":[106.607981,11.146867],"properties":{"Storecode":"821","Storename":"BDU - 4650 đường DB8","Address":"Thửa 4650, tờ bản đồ số: 58, đường DB8, khu đô thị Mỹ Phước 2, phường Mỹ Phước, thị xã Bến Cát, tỉnh Bình Dương.","Region":"SouthEast2","Province":"Binh Duong","District":"Ben Cat"}},{"type":"Point","coordinates":[108.431854,11.941683],"properties":{"Storecode":"822","Storename":"LDO - 4A - 4C Hải Thượng","Address":"4A-4C Hải Thượng, phường 06, thành phố Đà Lạt, tỉnh Lâm Đồng","Region":"Highland1","Province":"Lam Dong","District":"Da lat"}},{"type":"Point","coordinates":[106.728374,11.226166],"properties":{"Storecode":"824","Storename":"BDU - 12 DT741","Address":"số 12, Đường DT741, Khu Phố 3, Thị Trấn Tân Bình, Huyện Bắc Tân Uyên, Tỉnh Bình Dương","Region":"SouthEast2","Province":"Binh Duong","District":"Tan Uyen"}},{"type":"Point","coordinates":[106.669426,10.784493],"properties":{"Storecode":"825","Storename":"HCM - 460 - 462 Cách Mạng Tháng 8","Address":"460 - 462 Cách Mạng Tháng 8, Phường 11, Quận 3, Thành phố Hồ Chí Minh","Region":"HCM","Province":"Ho Chi Minh","District":"Quan 3"}},{"type":"Point","coordinates":[106.541818,20.998198],"properties":{"Storecode":"827","Storename":"HDU - 413 Trần Hưng Đạo","Address":"413 đường Trần Hưng Đạo, ngã tư Phụ Sơn, phường An Lưu, thị xã Kinh Môn, tỉnh Hải Dương","Region":"North","Province":"Hai Duong","District":"Kinh Mon"}},{"type":"Point","coordinates":[106.866411,10.985453],"properties":{"Storecode":"828","Storename":"DON - 02 Trần Văn Xã","Address":"02 Trần Văn Xã, Khu phố 3A, Phường Trảng Dài, Thành phố Biên Hoà, Tỉnh Đồng Nai","Region":"SouthEast2","Province":"Dong Nai","District":"Bien Hoa"}},{"type":"Point","coordinates":[106.027582,11.312031],"properties":{"Storecode":"829","Storename":"TNI - 339 Hoàng Lê Kha","Address":"Số thửa 339, tờ bản đồ 12, đường Hoàng Lê Kha, tổ 11, Khu Phố 3, Thị Trấn Châu Thành, huyện Châu Thành, tỉnh Tây Ninh","Region":"SouthEast1","Province":"Tay Ninh","District":"Chau Thanh"}},{"type":"Point","coordinates":[106.419976,17.755541],"properties":{"Storecode":"830","Storename":"QBI - 1 Lý Thường Kiệt","Address":"1 Lý Thường Kiệt, khu phố 1, phường Ba Đồn, thị xã Ba Đồn, tỉnh Quảng Bình","Region":"Central3","Province":"Quang Binh","District":"Ba Don"}},{"type":"Point","coordinates":[106.658122,10.741405],"properties":{"Storecode":"832","Storename":"HCM - 350 Phạm Thế Hiển","Address":"350 Phạm Thế Hiển, Phường 5, Quận 8, Thành phố Hồ Chí Minh","Region":"HCM","Province":"Ho Chi Minh","District":"Quan 8"}},{"type":"Point","coordinates":[106.670819,11.148719],"properties":{"Storecode":"833","Storename":"BDU - 41 DT741","Address":"41 Khu phố 3, Đường ĐT741, phường Chánh Phú Hòa, thị xã Bến Cát, tỉnh Bình Dương.","Region":"SouthEast2","Province":"Binh Duong","District":"Ben Cat"}},{"type":"Point","coordinates":[106.676622,10.874758],"properties":{"Storecode":"834","Storename":"HCM - 91/4B Hà Huy Giáp","Address":"91/4B Hà Huy Giáp, Khu Phố 3, Phường Thạnh Xuân, Quận 12, Thành phố Hồ Chí Minh","Region":"HCM","Province":"Ho Chi Minh","District":"Quan 12"}},{"type":"Point","coordinates":[108.644149,15.435633],"properties":{"Storecode":"836","Storename":"QNA - 236 Phạm Văn Đồng","Address":"236 Phạm Văn Đồng, thị trấn Núi Thành, huyện Núi Thành, tỉnh Quảng Nam","Region":"Central2","Province":"Quang Nam","District":"Nui Thanh"}},{"type":"Point","coordinates":[106.615281,10.891588],"properties":{"Storecode":"837","Storename":"HCM - 14/5 Đặng Thúc Vịnh","Address":"14/5 đường Đặng Thúc Vịnh, Ấp Trung Đông 1, Xã Thới Tam Thôn, Huyện Hóc Môn, Thành phố Hồ Chí Minh","Region":"HCM","Province":"Ho Chi Minh","District":"Hoc Mon"}},{"type":"Point","coordinates":[105.31477,9.76541],"properties":{"Storecode":"838","Storename":"KGI - Lô L10-12 QL61","Address":"Lô L10-12 Đường QL61, Chợ và Khu Dân Cư, xã Định An, huyện Gò Quao, tỉnh Kiên Giang","Region":"Mekong2","Province":"Kien Giang","District":"Go Quao"}},{"type":"Point","coordinates":[105.835995,10.044926],"properties":{"Storecode":"839","Storename":"VLO - 478-480 Lưu Nhơn Sâm","Address":"478-480, đường Lưu Nhơn Sâm, Khóm Đông Thuận, phường Đông Thuận, Thị xã Bình Minh, Tỉnh Vĩnh Long.","Region":"Mekong2","Province":"Vinh Long","District":"Binh Minh"}},{"type":"Point","coordinates":[105.999239,10.047686],"properties":{"Storecode":"840","Storename":"VLO - 12 Phan Văn Đáng","Address":"12 đường Phan Văn Đáng, Khóm 1, Thị trấn Tam Bình, Huyện Tam Bình, Tỉnh Vĩnh Long","Region":"Mekong2","Province":"Vinh Long","District":"Tam Binh"}},{"type":"Point","coordinates":[107.371728,10.627775],"properties":{"Storecode":"841","Storename":"BVT - 189 Đường 328","Address":"189, Đường 328, Ấp 4, Tổ 9, Xã Hòa Bình, Huyện Xuyên Mộc, Tỉnh Bà Rịa Vũng Tàu","Region":"SouthEast2","Province":"Ba Ria - Vung Tau","District":"Xuyen Moc"}},{"type":"Point","coordinates":[106.599558,10.760524],"properties":{"Storecode":"843","Storename":"HCM - 168 đường Lê Đình Cẩn","Address":"168 đường Lê Đình Cẩn, khu phố 6, phường Tân Tạo, Quận Bình Tân, Thành phố Hồ Chí Minh","Region":"HCM","Province":"Ho Chi Minh","District":"Binh Tan"}},{"type":"Point","coordinates":[106.50538,10.175176],"properties":{"Storecode":"844","Storename":"BTR - Nguyễn Thị Định","Address":"Đường Nguyễn Thị Định, Khu phố 2, Thị trấn Giồng Trôm, Huyện Giồng Trôm, Tỉnh Bến Tre","Region":"Mekong1","Province":"Ben Tre","District":"Giong Trom"}},{"type":"Point","coordinates":[107.677563,16.408734],"properties":{"Storecode":"845","Storename":"HUE - 1136 - 1138 Nguyễn Tất Thành","Address":"1136-1138 Nguyễn Tất Thành, phường Phú Bài, thị xã Hương Thuỷ, tỉnh Thừa Thiên Huế","Region":"Central3","Province":"Hue","District":"Huong Thuy"}},{"type":"Point","coordinates":[108.025766,12.668517],"properties":{"Storecode":"846","Storename":"DLK - 211 Mai Hắc Đế","Address":"211 Mai Hắc Đế, phường Tân Thành, thành phố Buôn Ma Thuột, tỉnh Đắk Lắk","Region":"Highland2","Province":"Dak Lak","District":"Buon Me Thuot"}},{"type":"Point","coordinates":[106.621958,10.79589],"properties":{"Storecode":"847","Storename":"HCM - 176 Gò Dầu","Address":"176 Gò Dầu, Phường Tân Quý, Quận Tân Phú, Thành phố Hồ Chí Minh","Region":"HCM","Province":"Ho Chi Minh","District":"Tan Phu"}},{"type":"Point","coordinates":[104.62997,10.277389],"properties":{"Storecode":"849","Storename":"KGI - 265 đường QL80","Address":"265 đường QL80, tổ 10, khu phố Kiên Tân, thị trấn Kiên Lương, huyện Kiên Lương, tỉnh Kiên Giang","Region":"Mekong2","Province":"Kien Giang","District":"Kien Luong"}},{"type":"Point","coordinates":[106.739231,10.866072],"properties":{"Storecode":"850","Storename":"HCM - 619 Tô Ngọc Vân","Address":"619 Tô Ngọc Vân, Khu Phố 04, Phường Tam Bình, Thành Phố Thủ Đức, Thành phố Hồ Chí Minh","Region":"HCM","Province":"Ho Chi Minh","District":"Thu Duc"}},{"type":"Point","coordinates":[107.335308,10.762951],"properties":{"Storecode":"851","Storename":"DON - 40 DT 764","Address":"40 DT764, Ấp 9, Xã Sông Ray, Huyện Cẩm Mỹ, Tỉnh Đồng Nai","Region":"SouthEast2","Province":"Dong Nai","District":"Cam My"}},{"type":"Point","coordinates":[106.615315,20.857386],"properties":{"Storecode":"853","Storename":"HAP - 22 Tổ 4 An Dương","Address":"Số 22 Tổ 4, Thị Trấn An Dương, Huyện An Dương, Thành Phố Hải Phòng","Region":"North","Province":"Hai Phong","District":"An Duong"}},{"type":"Point","coordinates":[106.168381,11.488826],"properties":{"Storecode":"854","Storename":"TNI - 324 TL 785","Address":"Thửa 324, tờ bản đồ 17, Tỉnh lộ 785,tổ 14, Ấp Tân Tây, Xã Tân Hưng, Huyện Tân Châu, Tỉnh Tây Ninh","Region":"SouthEast1","Province":"Tay Ninh","District":"Tan Chau"}},{"type":"Point","coordinates":[106.578544,10.758695],"properties":{"Storecode":"855","Storename":"HCM - 1647 TL10","Address":"1647 Tỉnh lộ 10, Khu phố 5, Phường Tân Tạo A, Quận Bình Tân, Thành Phố Hồ Chí Minh","Region":"HCM","Province":"Ho Chi Minh","District":"Binh Tan"}},{"type":"Point","coordinates":[105.114664,9.678526],"properties":{"Storecode":"868","Storename":"KGI - Quốc Lộ 63","Address":"Đường Quốc Lộ 63, Xã Thạnh Yên, Huyện U Minh Thượng, Tỉnh Kiên Giang","Region":"Mekong2","Province":"Kien Giang","District":"U Minh Thuong"}},{"type":"Point","coordinates":[105.987308,11.605325],"properties":{"Storecode":"870","Storename":"TNI - 120 đường 22B","Address":"Thửa 120, tờ bản đồ 76, đường 22B, ấp Tân Hòa, xã Tân Lập, Thị Trấn Tân Biên, Huyện Tân Biên, Tỉnh Tây Ninh","Region":"SouthEast1","Province":"Tay Ninh","District":"Tan Bien"}},{"type":"Point","coordinates":[108.032995,12.682683],"properties":{"Storecode":"872","Storename":"DLK - 350 Phan Bội Châu","Address":"350 Phan Bội Châu, phường Thống Nhất, thành phố Buôn Ma Thuột, tỉnh Đắk Lắk, Phường Thống Nhất, Thành Phố Buôn Ma Thuột, Tỉnh Đắk Lắk","Region":"Highland2","Province":"Dak Lak","District":"Buon Me Thuot"}},{"type":"Point","coordinates":[108.994393,11.578328],"properties":{"Storecode":"873","Storename":"NTH - 9D Nguyễn Văn Cừ","Address":"9D Nguyễn Văn Cừ, phường Đài Sơn, thành phố Phan Rang-Tháp Chàm, tỉnh Ninh Thuận, Phường Đài Sơn, Thành Phố Phan Rang-Tháp Chàm, Tỉnh Ninh Thuận","Region":"Central1","Province":"Ninh Thuan","District":"Thap Cham"}},{"type":"Point","coordinates":[109.147369,13.801835],"properties":{"Storecode":"874","Storename":"BDI - 47 Trần Phú","Address":"47 Trần Phú, thị trấn Diêu Trì, huyện Tuy Phước, tỉnh Bình Định, Thị Trấn Diêu Trì, Huyện Tuy Phước, Tỉnh Bình Định","Region":"Central2","Province":"Binh Dinh","District":"Tuy Phuoc"}},{"type":"Point","coordinates":[106.90035,10.888524],"properties":{"Storecode":"878","Storename":"DON - 144 Đinh Quang Ân","Address":"144 Đinh Quang Ân, Ấp Hương Phước, Phường Phước Tân, Thành Phố Biên Hòa, Tỉnh Đồng Nai","Region":"SouthEast2","Province":"Dong Nai","District":"Bien Hoa"}},{"type":"Point","coordinates":[106.857675,10.956243],"properties":{"Storecode":"880","Storename":"DON - 28 Lý Văn Sâm","Address":"28 Lý Văn Sâm, Phường Tam Hiệp, Thành Phố Biên Hòa, Tỉnh Đồng Nai","Region":"SouthEast2","Province":"Dong Nai","District":"Bien Hoa"}},{"type":"Point","coordinates":[105.824963,21.035001],"properties":{"Storecode":"882","Storename":"HNI - 147K Đội Cấn","Address":"số 147K đường Đội Cấn, Phường Ngọc Hà, Quận Ba Đình, Thành Phố Hà Nội","Region":"North","Province":"Ha Noi","District":"Ba Dinh"}},{"type":"Point","coordinates":[106.392601,10.894362],"properties":{"Storecode":"884","Storename":"LAN - 159 - 160 N2","Address":"Số 159-160 Đường Quốc Lộ N2, Xã Đức Lập Hạ, Huyện Đức Hòa, Tỉnh Long An","Region":"Mekong1","Province":"Long An","District":"Duc Hoa"}},{"type":"Point","coordinates":[106.639017,11.810038],"properties":{"Storecode":"886","Storename":"BPH - 23 ấp 07 Lộc Thái","Address":"Số 23, tổ 01, ấp 7, Xã Lộc Thái, Huyện Lộc Ninh, Tỉnh Bình Phước","Region":"SouthEast2","Province":"Binh Phuoc","District":"Loc Ninh"}},{"type":"Point","coordinates":[106.507941,10.51373],"properties":{"Storecode":"889","Storename":"LAN - 15 ĐT833","Address":"Số 15 đường ĐT833, Thị Trấn Tân Trụ, Huyện Tân Trụ, Tỉnh Long An","Region":"Mekong1","Province":"Long An","District":"Tan Tru"}},{"type":"Point","coordinates":[106.929879,10.752127],"properties":{"Storecode":"891","Storename":"DON - 55/7 Phạm Văn Đồng","Address":"55/7 Phạm Văn Đồng, Xã Phước Thiền, Huyện Nhơn Trạch, Tỉnh Đồng Nai","Region":"SouthEast2","Province":"Dong Nai","District":"Nhon Trach"}},{"type":"Point","coordinates":[106.769194,10.774636],"properties":{"Storecode":"893","Storename":"HCM - 705 Nguyễn Thị Định","Address":"705 Nguyễn Thị Định, Khu phố 2, Phường Cát Lái, Thành phố Thủ Đức, Thành Phố Hồ Chí Minh","Region":"HCM","Province":"Ho Chi Minh","District":"Thu Duc"}},{"type":"Point","coordinates":[105.828274,21.00012],"properties":{"Storecode":"894","Storename":"HNI - Go Lê Trọng Tấn","Address":"BS 7+8+8 tầng hầng 1 TTTM Go! Lê Trọng Tấn, Phường Khương Mai, Quận Thanh Xuân, Thành Phố Hà Nội","Region":"North","Province":"Ha Noi","District":"Thanh Xuan"}},{"type":"Point","coordinates":[107.063648,10.629213],"properties":{"Storecode":"896","Storename":"BVT - 1129 KP Thị Vải","Address":"Thửa đất số 1129, tờ bản đồ số 22, Tổ 02, Khu phố Thị Vải, Phường Mỹ Xuân, Thị Xã Phú Mỹ, Tỉnh Bà Rịa - Vũng Tàu","Region":"SouthEast2","Province":"Ba Ria - Vung Tau","District":"Phu My"}},{"type":"Point","coordinates":[106.706726,10.745574],"properties":{"Storecode":"898","Storename":"HCM - 98 Đường số 15","Address":"98 đường số 15, khu phố 2, Phường Tân Kiểng, Quận 7, Thành Phố Hồ Chí Minh","Region":"HCM","Province":"Ho Chi Minh","District":"Quan 7"}},{"type":"Point","coordinates":[106.615787,10.714815],"properties":{"Storecode":"899","Storename":"HCM - 54 Hồ Học Lãm","Address":"54 Hồ Học Lãm, Phường 16, Quận 8, Thành Phố Hồ Chí Minh","Region":"HCM","Province":"Ho Chi Minh","District":"Quan 8"}},{"type":"Point","coordinates":[105.895331,19.731592],"properties":{"Storecode":"901","Storename":"THO - 698 Trung Sơn","Address":"DV-01:10 thửa đất số 698 tờ bản đồ số 08, Phường Trung Sơn, Thành Phố Sầm Sơn, Tỉnh Thanh Hóa","Region":"North","Province":"Thanh Hoa","District":"Sam Son"}},{"type":"Point","coordinates":[106.782195,10.911517],"properties":{"Storecode":"903","Storename":"BDU - 2009 đường D1","Address":"Thửa đất 2009, tờ bản đồ 7TDH.2, đường D1, KP Đông An, Phường Tân Đông Hiệp, Thị Xã Dĩ An, Tỉnh Bình Dương","Region":"SouthEast2","Province":"Binh Duong","District":"Di An"}},{"type":"Point","coordinates":[106.91685,11.540186],"properties":{"Storecode":"905","Storename":"BPH - 21 QL14","Address":"Thửa 21, Tờ bản đồ số 36, Đường Quốc Lộ 14, Khu Phố 4, Phường Tiến Thành, Thành Phố Đồng Xoài, Tỉnh Bình Phước","Region":"SouthEast2","Province":"Binh Phuoc","District":"Dong Xoai"}},{"type":"Point","coordinates":[106.71167,11.93911],"properties":{"Storecode":"907","Storename":"BPH - 24 ấp Tân Lợi","Address":"Thửa đất số 24, tờ bản đồ 22, ấp Tân Lợi, Xã Tân Thành, Huyện Bù Đốp, Tỉnh Bình Phước","Region":"SouthEast2","Province":"Binh Phuoc","District":"Bu Dop"}},{"type":"Point","coordinates":[108.475068,15.591729],"properties":{"Storecode":"909","Storename":"QNA - AI - AII Nguyễn Văn Trỗi","Address":"số AI+AII, đường Nguyễn Văn Trỗi, phường Tân Thạnh, thành phố Tam Kỳ, tỉnh Quảng Nam, Phường Tân Thạnh, Thành Phố Tam Kỳ, Tỉnh Quảng Nam","Region":"Central2","Province":"Quang Nam","District":"Tam Ky"}},{"type":"Point","coordinates":[105.422492,10.392209],"properties":{"Storecode":"911","Storename":"AGI - Thành Thái","Address":"Đường Thành Thái, Khóm Bình Khánh 6, Phường Bình Khánh, Thành Phố Long Xuyên, Tỉnh An Giang","Region":"Mekong2","Province":"An Giang","District":"Long Xuyen"}},{"type":"Point","coordinates":[108.240058,16.054666],"properties":{"Storecode":"912","Storename":"DNA - 119 Nguyễn Văn Thoại","Address":"119 Nguyễn Văn Thoại, Phường An Hải Đông, Quận Sơn Trà, Thành Phố Đà Nẵng","Region":"Central2","Province":"Da Nang","District":"Son Tra"}},{"type":"Point","coordinates":[103.457874,22.399278],"properties":{"Storecode":"915","Storename":"LCH - 49 Trần Hưng Đạo","Address":"49 Đường Trần Hưng Đạo, Phường Đoàn Kết, Thành phố Lai Châu, Tỉnh Lai Châu","Region":"North","Province":"Lai Chau","District":"Lai Chau"}},{"type":"Point","coordinates":[105.983557,9.770044],"properties":{"Storecode":"916","Storename":"STR - 1 Phan Văn Hùng","Address":"Số 01 Đường Phan Văn Hùng, Thị Trấn Kế Sách, Huyện Kế Sách, Tỉnh Sóc Trăng","Region":"Mekong2","Province":"Soc Trang","District":"Ke Sach"}},{"type":"Point","coordinates":[106.99343,11.840257],"properties":{"Storecode":"917","Storename":"BPH - 43 - 54 đường Sáu Tháng Một","Address":"Thửa đất số 43; 54, tờ bản đồ số 37, Đường Sáu Tháng Một, khu phố 3, Phường Thác Mơ, Thị Xã Phước Long, Tỉnh Bình Phước","Region":"SouthEast2","Province":"Binh Phuoc","District":"Phuoc Long"}},{"type":"Point","coordinates":[106.132497,11.307855],"properties":{"Storecode":"918","Storename":"TNI - 713 Điện Biên Phủ","Address":"713 Điện Biên Phủ, khu phố Ninh Phước, Phường Ninh Thạnh, Thành Phố Tây Ninh, Tỉnh Tây Ninh","Region":"SouthEast1","Province":"Tay Ninh","District":"Tay Ninh"}},{"type":"Point","coordinates":[106.590187,11.844778],"properties":{"Storecode":"919","Storename":"BPH - KP Ninh Phú","Address":"Thửa đất số 06, tờ bản đồ số TĐ 38 -2019 và Thửa đất số 198, tờ bản đồ số 27, khu phố Ninh Phú, Thị Trấn Lộc Ninh, Huyện Lộc Ninh, Tỉnh Bình Phước","Region":"SouthEast2","Province":"Binh Phuoc","District":"Loc Ninh"}},{"type":"Point","coordinates":[106.229128,11.384169],"properties":{"Storecode":"920","Storename":"TNI - 298 - 300 Nguyễn Chí Thanh","Address":"Số 298-300 đường Nguyễn Chí Thanh, Tổ 6, Khu phố 2, Thị Trấn Dương Minh Châu, Huyện Dương Minh Châu, Tỉnh Tây Ninh","Region":"SouthEast1","Province":"Tay Ninh","District":"Duong Minh Chau"}},{"type":"Point","coordinates":[105.969486,20.261448],"properties":{"Storecode":"921","Storename":"NBI - 764 - 766 Trần Hưng Đạo","Address":"Số 764-766 đường Trần Hưng Đạo, phố Trung Nhì, Phường Tân Thành, Thành Phố Ninh Bình, Tỉnh Ninh Bình","Region":"North","Province":"Ninh Binh","District":"Ninh Binh"}},{"type":"Point","coordinates":[106.966569,10.98775],"properties":{"Storecode":"922","Storename":"DON - 265 TL767","Address":"Thửa đất số 265, tờ bản đồ số 19, tỉnh lộ 767, thôn Tây Lạc, Ấp An Chu, Xã Bắc Sơn, Huyện Trảng Bom, Tỉnh Đồng Nai","Region":"SouthEast2","Province":"Dong Nai","District":"Trang Bom"}},{"type":"Point","coordinates":[106.590212,10.808121],"properties":{"Storecode":"923","Storename":"HCM - 54 - 56 đường số 3","Address":"54 – 56 Đường số 3, khu dân cư Vĩnh Lộc, Phường Bình Hưng Hoà B, Quận Bình Tân, Thành Phố Hồ Chí Minh","Region":"HCM","Province":"Ho Chi Minh","District":"Binh Tan"}},{"type":"Point","coordinates":[107.036341,11.092251],"properties":{"Storecode":"924","Storename":"DON - 101 Nguyễn Tất Thành","Address":"101 Nguyễn Tất Thành, Tổ 1, Khu phố 5, Thị Trấn Vĩnh An, Huyện Vĩnh Cửu, Tỉnh Đồng Nai","Region":"SouthEast2","Province":"Dong Nai","District":"Vinh Cuu"}},{"type":"Point","coordinates":[107.862263,12.466786],"properties":{"Storecode":"926","Storename":"DNK - 57 Nguyễn Tất Thành","Address":"57 Nguyễn Tất Thành, thị trấn Đắk Mâm, huyện Krông Nô, tỉnh Đắk Nông, Thị Trấn Đắk Mâm, Huyện Krông Nô, Tỉnh Đắk Nông","Region":"Highland2","Province":"Dak Nong","District":"Krong No"}},{"type":"Point","coordinates":[107.208411,10.591316],"properties":{"Storecode":"928","Storename":"BVT - 521 Đường số 6","Address":"Thửa đất số 521, tờ bản đồ số 8, đường số 6, thôn Vĩnh Sơn, Xã Nghĩa Thành, Huyện Châu Đức, Tỉnh Bà Rịa - Vũng Tàu","Region":"SouthEast2","Province":"Ba Ria - Vung Tau","District":"Chau Duc"}},{"type":"Point","coordinates":[106.867237,10.896911],"properties":{"Storecode":"929","Storename":"DON - 08 Tổ 2","Address":"08, Tổ 2, Khu phố 2, Phường Long Bình Tân, Thành Phố Biên Hòa, Tỉnh Đồng Nai","Region":"SouthEast2","Province":"Dong Nai","District":"Bien Hoa"}},{"type":"Point","coordinates":[106.689356,10.946719],"properties":{"Storecode":"930","Storename":"BDU - 24A Cách Mạng Tháng Tám","Address":"Thửa đất số 24a, tờ bản đồ C3, đường Cách Mạng Tháng Tám, Khu phố Thạnh Lợi, Phường An Thạnh, Thành phố Thuận An, Tỉnh Bình Dương","Region":"SouthEast2","Province":"Binh Duong","District":"Thuan An"}},{"type":"Point","coordinates":[105.791249,10.88544],"properties":{"Storecode":"931","Storename":"LAN - 50 - 52 CMT8","Address":"Số 50-52 Đường Cách Mạng Tháng Tám, Khu phố 1, Thị Trấn Vĩnh Hưng, Huyện Vĩnh Hưng, Tỉnh Long An","Region":"Mekong1","Province":"Long An","District":"Vinh Hung"}},{"type":"Point","coordinates":[106.967059,10.868325],"properties":{"Storecode":"932","Storename":"DON - 53 Nguyễn Khắc Hiếu","Address":"53 Nguyễn Khắc Hiếu, Khu phố Long Đức 1, Phường Tam Phước, Thành Phố Biên Hòa, Tỉnh Đồng Nai","Region":"SouthEast2","Province":"Dong Nai","District":"Bien Hoa"}},{"type":"Point","coordinates":[106.404582,10.598409],"properties":{"Storecode":"934","Storename":"LAN - 4/1 KII ô 2 Phan Văn Tình","Address":"Số 4/1 KII Ô2 Đường Phan Văn Tình, Thị Trấn Thủ Thừa, Huyện Thủ Thừa, Tỉnh Long An","Region":"Mekong1","Province":"Long An","District":"Thu Thua"}},{"type":"Point","coordinates":[106.768319,10.886515],"properties":{"Storecode":"935","Storename":"HCM - 156 đường 11","Address":"156 đường số 11, Khu phố 5, Phường Linh Xuân, Thành phố Thủ Đức, Thành Phố Hồ Chí Minh","Region":"HCM","Province":"Ho Chi Minh","District":"Thu Duc"}},{"type":"Point","coordinates":[107.86105,10.840842],"properties":{"Storecode":"936","Storename":"BTH - 547 Trần Hưng Đạo","Address":"547 Trần Hưng Đạo, Thị Trấn Thuận Nam, Huyện Hàm Thuận Nam, Tỉnh Bình Thuận","Region":"Central1","Province":"Binh Thuan","District":"Ham Thuan Nam"}},{"type":"Point","coordinates":[107.506762,11.14937],"properties":{"Storecode":"937","Storename":"BTH - 270 đường 3 tháng 2","Address":"270 Đường 3 Tháng 2, Thị Trấn Đức Tài, Huyện Đức Linh, Tỉnh Bình Thuận","Region":"Central1","Province":"Binh Thuan","District":"Duc Linh"}},{"type":"Point","coordinates":[108.213692,16.069654],"properties":{"Storecode":"940","Storename":"DNA - 362-364 Ông Ích Khiêm","Address":"362-364 Ông Ích Khiêm, phường Vĩnh Trung, Quận Thanh Khê, thành phố Đà Nẵng.","Region":"Central2","Province":"Da Nang","District":"Thanh Khe"}},{"type":"Point","coordinates":[105.637364,10.456789],"properties":{"Storecode":"941","Storename":"ĐTH - 158 - 160 Nguyễn Huệ","Address":"158 - 160 đường Nguyễn Huệ, Khóm 2, Phường 2, Thành Phố Cao Lãnh, Tỉnh Đồng Tháp","Region":"Mekong2","Province":"Dong Thap","District":"Cao Lanh"}},{"type":"Point","coordinates":[106.780608,10.793916],"properties":{"Storecode":"944","Storename":"HCM - 186 đường 51","Address":"186 đường số 51, Phường An Phú, Thành phố Thủ Đức, Thành phố Hồ Chí Minh","Region":"HCM","Province":"Ho Chi Minh","District":"Thu Duc"}},{"type":"Point","coordinates":[106.778166,10.894976],"properties":{"Storecode":"945","Storename":"BDU - Ô 33,34,35,36 Hai Bà Trưng","Address":"Ô 33, Ô 34, Ô 35, Ô 36 - Lô B1; tờ bản đồ số: 1DH2, đường Hai Bà Trưng, khu phố Đông B, phường Đông Hòa, thành phố Dĩ An, tỉnh Bình Dương","Region":"SouthEast2","Province":"Binh Duong","District":"Di An"}},{"type":"Point","coordinates":[108.049191,12.690704],"properties":{"Storecode":"954","Storename":"DLK - 245 Phan Chu Trinh","Address":"245 Phan Chu Trinh, Phường Tân Lợi, Thành Phố Buôn Ma Thuột, Tỉnh Đắk Lắk","Region":"Highland2","Province":"Dak Lak","District":"Buon Me Thuot"}},{"type":"Point","coordinates":[107.811135,11.543437],"properties":{"Storecode":"958","Storename":"LDO - 97 Lê Hồng Phong","Address":"97 Lê Hồng Phong, Phường 1, Thành Phố Bảo Lộc, Tỉnh Lâm Đồng","Region":"Highland1","Province":"Lam Dong","District":"Bao Loc"}},{"type":"Point","coordinates":[106.644186,10.908763],"properties":{"Storecode":"961","Storename":"HCM - 10/17 - 11A Đặng Thúc Vịnh","Address":"10/17 - 11A đường Đặng Thúc Vịnh, ấp 7, Xã Đông Thạnh, Huyện Hóc Môn, Thành Phố Hồ Chí Minh","Region":"HCM","Province":"Ho Chi Minh","District":"Hoc Mon"}},{"type":"Point","coordinates":[107.173786,10.491736],"properties":{"Storecode":"962","Storename":"BVT - 76 Nguyễn Hữu Thọ","Address":"76 Nguyễn Hữu Thọ, Phường Phước Trung, Thành Phố Bà Rịa, Tỉnh Bà Rịa - Vũng Tàu","Region":"SouthEast2","Province":"Ba Ria - Vung Tau","District":"Ba Ria"}},{"type":"Point","coordinates":[109.30281,13.090191],"properties":{"Storecode":"963","Storename":"PYN - 83-83A Nguyễn Thái Học","Address":"83-83A Nguyễn Thái Học, Phường 3, Thành Phố Tuy Hoà, Tỉnh Phú Yên","Region":"Central2","Province":"Phu Yen","District":"Tuy Hoa"}},{"type":"Point","coordinates":[105.946488,20.994806],"properties":{"Storecode":"964","Storename":"HNI - S2 KĐT Vinhomes Ocean Park","Address":"01Sh18 Vinhomes Ocean Park, Xã Đa Tốn, Huyện Gia Lâm, Thành Phố Hà Nội","Region":"North","Province":"Ha Noi","District":"Gia Lam"}},{"type":"Point","coordinates":[106.67642,10.78884],"properties":{"Storecode":"968","Storename":"HCM - 404 Lê Văn Sỹ","Address":"404 Lê Văn Sỹ, Phường 02, Quận Tân Bình, Thành Phố Hồ Chí Minh","Region":"HCM","Province":"Ho Chi Minh","District":"Tan Binh"}},{"type":"Point","coordinates":[106.451822,9.798385],"properties":{"Storecode":"969","Storename":"TVI - 116 Đường 3/2","Address":"Số 116 Đường 3/2, Khóm Minh Thuận B, Thị Trấn Cầu Ngang, Huyện Cầu Ngang, Tỉnh Trà Vinh","Region":"Mekong2","Province":"Tra Vinh","District":"Cau Ngang"}},{"type":"Point","coordinates":[106.196247,10.474433],"properties":{"Storecode":"970","Storename":"TGI - 73 ĐT867","Address":"Số 73 đường DT867, Khu phố 1, Thị Trấn Mỹ Phước, Huyện Tân Phước, Tỉnh Tiền Giang","Region":"Mekong2","Province":"Tien Giang","District":"Tan Phuoc"}},{"type":"Point","coordinates":[106.647507,10.801516],"properties":{"Storecode":"971","Storename":"HCM - 140A Hoàng Hoa Thám","Address":"140A Hoàng Hoa Thám, Phường 12, Quận Tân Bình, Thành Phố Hồ Chí Minh","Region":"HCM","Province":"Ho Chi Minh","District":"Tan Binh"}},{"type":"Point","coordinates":[109.23058,12.701206],"properties":{"Storecode":"972","Storename":"KHO - 17 Nguyễn Huệ","Address":"17 Nguyễn Huệ, Thị Trấn Vạn Giã, Huyện Vạn Ninh, Tỉnh Khánh Hòa","Region":"Central1","Province":"Khanh Hoa","District":"Van Ninh"}},{"type":"Point","coordinates":[107.192141,10.40846],"properties":{"Storecode":"973","Storename":"BVT - D23 Đường Huyện 5","Address":"D23 Đường Huyện 5, Tổ 1, Ấp Phước Thái, Xã Phước Tỉnh, Huyện Long Điền, Tỉnh Bà Rịa - Vũng Tàu","Region":"SouthEast2","Province":"Ba Ria - Vung Tau","District":"Long Dien"}},{"type":"Point","coordinates":[108.412769,11.784166],"properties":{"Storecode":"974","Storename":"LDO - 3 Thôn Phi Nôm","Address":"Số 3, Tổ 27, Thôn Phi Nôm, Xã Hiệp Thạnh, Huyện Đức Trọng, Tỉnh Lâm Đồng","Region":"Highland1","Province":"Lam Dong","District":"Duc Trong"}},{"type":"Point","coordinates":[107.749996,10.683513],"properties":{"Storecode":"975","Storename":"BTH - 321 Ngô Quyền","Address":"321 Ngô Quyền, Khu phố 2, Phường Tân An, Thị xã La Gi, Tỉnh Bình Thuận","Region":"Central1","Province":"Binh Thuan","District":"Lagi"}},{"type":"Point","coordinates":[108.286116,10.936148],"properties":{"Storecode":"976","Storename":"BTH - 345 Huỳnh Thúc Kháng","Address":"345 Huỳnh Thúc Kháng, Phường Mũi Né, Thành Phố Phan Thiết, Tỉnh Bình Thuận","Region":"Central1","Province":"Binh Thuan","District":"Phan Thiet"}},{"type":"Point","coordinates":[105.287377,10.459007],"properties":{"Storecode":"977","Storename":"AGI - Đường DT941","Address":"Đường DT941, Xã Cần Đăng, Huyện Châu Thành, Tỉnh An Giang","Region":"Mekong2","Province":"An Giang","District":"Chau Thanh"}},{"type":"Point","coordinates":[105.04487,9.798575],"properties":{"Storecode":"978","Storename":"KGI - 194-195 Quốc Lộ 63","Address":"194-195 Quốc Lộ 63, Khu phố 3, Thị Trấn Thứ Ba, Huyện An Biên, Tỉnh Kiên Giang","Region":"Mekong2","Province":"Kien Giang","District":"An Bien"}},{"type":"Point","coordinates":[106.695315,10.183541],"properties":{"Storecode":"979","Storename":"BTR - 38A Quốc Lộ 57B","Address":"38A Quốc Lộ 57B, Khu phố 1, Thị Trấn Bình Đại, Huyện Bình Đại, Tỉnh Bến Tre","Region":"Mekong1","Province":"Ben Tre","District":"Binh Dai"}},{"type":"Point","coordinates":[105.431741,10.092837],"properties":{"Storecode":"980","Storename":"CTO - Hà Huy Giáp","Address":"Đường Hà Huy Giáp, Thị Trấn Cờ Đỏ, Huyện Cờ Đỏ, Thành Phố Cần Thơ.","Region":"Mekong2","Province":"Can Tho","District":"Co Do"}},{"type":"Point","coordinates":[106.603599,17.484158],"properties":{"Storecode":"981","Storename":"QBI - 02 Hữu Nghị","Address":"02 Hữu Nghị, Phường Bắc Lý, Thành Phố Đồng Hới, Tỉnh Quảng Bình","Region":"Central3","Province":"Quang Binh","District":"Dong Hoi"}},{"type":"Point","coordinates":[105.338366,10.811919],"properties":{"Storecode":"982","Storename":"ĐTH - 104-106 Hùng Vương","Address":"104-106 Hùng Vương, Khóm Thượng 1, Thị Trấn Thường Thới Tiền, Huyện Hồng Ngự, Tỉnh Đồng Tháp","Region":"Mekong2","Province":"Dong Thap","District":"Hong Ngu"}},{"type":"Point","coordinates":[107.462707,11.27827],"properties":{"Storecode":"983","Storename":"DON - 1441 Quốc Lộ 20","Address":"1441 Quốc Lộ 20, Tổ 1, Ấp Ngọc Lâm 2, Xã Phú Xuân, Huyện Tân Phú, Tỉnh Đồng Nai","Region":"SouthEast2","Province":"Dong Nai","District":"Tan Phu"}},{"type":"Point","coordinates":[106.564611,11.077368],"properties":{"Storecode":"984","Storename":"BDU - 701 Đường ĐT744","Address":"Thửa số 701, tờ bản đồ 36, đường ĐT 744, Khu phố Lồ Ồ, Phường An Tây, Thành phố Bến Cát, Tỉnh Bình Dương","Region":"SouthEast2","Province":"Binh Duong","District":"Ben Cat"}},{"type":"Point","coordinates":[106.247612,9.958801],"properties":{"Storecode":"985","Storename":"TVI - 17 Quốc Lộ 60","Address":"Số 17, Đường Quốc Lộ 60, Khóm 4, Thị Trấn Tiểu Cần, Huyện Tiểu Cần, Tỉnh Trà Vinh","Region":"Mekong2","Province":"Tra Vinh","District":"Tieu Cau"}},{"type":"Point","coordinates":[108.098421,10.934879],"properties":{"Storecode":"986","Storename":"BTH - 38C Nguyễn Hội","Address":"38C Nguyễn Hội, Phường Phú Trinh, Thành Phố Phan Thiết, Tỉnh Bình Thuận","Region":"Central1","Province":"Binh Thuan","District":"Phan Thiet"}},{"type":"Point","coordinates":[107.728092,10.806616],"properties":{"Storecode":"987","Storename":"BTH - 199 Hùng Vương","Address":"199 Đường Hùng Vương, Thị Trấn Tân Nghĩa, Huyện Hàm Tân, Tỉnh Bình Thuận","Region":"Central1","Province":"Binh Thuan","District":"Duc Linh"}},{"type":"Point","coordinates":[108.344056,12.952246],"properties":{"Storecode":"988","Storename":"DLK - 54 Nguyễn Tất Thành","Address":"54 Nguyễn Tất Thành, Thị Trấn Krông Năng, Huyện Krông Năng, Tỉnh Đắk Lắk","Region":"Highland2","Province":"Dak Lak","District":"Krong Nang"}},{"type":"Point","coordinates":[108.810995,15.117476],"properties":{"Storecode":"989","Storename":"QNG - 11-13-15 Phạm Văn Đồng","Address":"11-13-15 Phạm Văn Đồng, Thị Trấn Sông Vệ, Huyện Tư Nghĩa, Tỉnh Quảng Ngãi","Region":"Central2","Province":"Quang Ngai","District":"Tu Nghia"}},{"type":"Point","coordinates":[109.168104,13.825257],"properties":{"Storecode":"990","Storename":"BDI - 355 Nguyễn Huệ","Address":"355 Nguyễn Huệ, Thị Trấn Tuy Phước, Huyện Tuy Phước, Tỉnh Bình Định","Region":"Central2","Province":"Binh Dinh","District":"Tuy Phuoc"}},{"type":"Point","coordinates":[107.248192,16.694807],"properties":{"Storecode":"991","Storename":"QTR - 48 Hùng Vương","Address":"48 Hùng Vương, Thị trấn Diên Sanh, Huyện Hải Lăng, Tỉnh Quảng Trị","Region":"Central3","Province":"Quang Tri","District":"Hai Lang"}},{"type":"Point","coordinates":[106.484762,10.553254],"properties":{"Storecode":"992","Storename":"NTH - 544 Thôn Lạc Tân 1","Address":"Thửa đất 544, tờ bản đồ số 28a, Thôn Lạc Tân 1, Xã Phước Diêm, Huyện Thuận Nam, Tỉnh Ninh Thuận","Region":"Central1","Province":"Ninh Thuan","District":"Ham Thuan Nam"}},{"type":"Point","coordinates":[106.662608,20.863383],"properties":{"Storecode":"993","Storename":"HAP - Số 37 Khu BH01 Vinhomes Imperia","Address":"số 37 khu BH01 - ô số 1 lô OTM-5, khu đô thị Vinhomes Imperia, Phường Thượng Lý, Quận Hồng Bàng, Thành Phố Hải Phòng","Region":"North","Province":"Hai Phong","District":"Hong Bang"}},{"type":"Point","coordinates":[105.856103,20.08019],"properties":{"Storecode":"994","Storename":"THO - 73 Nguyễn Huệ","Address":"73 Nguyễn Huệ, Phường Ngọc Trạo, Thị Xã Bỉm Sơn, Tỉnh Thanh Hóa","Region":"North","Province":"Thanh Hoa","District":"Bim Son"}},{"type":"Point","coordinates":[105.565024,10.059343],"properties":{"Storecode":"995","Storename":"CTO - Ấp Thới Thuận A","Address":"Ấp Thới Thuận A, Thị Trấn Thới Lai, Huyện Thới Lai, Thành Phố Cần Thơ","Region":"Mekong2","Province":"Can Tho","District":"Thoi Lai"}},{"type":"Point","coordinates":[107.429771,11.266492],"properties":{"Storecode":"996","Storename":"DON - 569 Quốc lộ 20","Address":"569 Quốc lộ 20, Tổ 1, Khu 8, Thị Trấn Tân Phú, Huyện Tân Phú, Tỉnh Đồng Nai","Region":"SouthEast2","Province":"Dong Nai","District":"Tan Phu"}},{"type":"Point","coordinates":[106.62078,10.008699],"properties":{"Storecode":"997","Storename":"BTR - Đường Tỉnh 885","Address":"Đường Tỉnh 885, Ấp Tân Bình, Xã Tân Thủy, Huyện Ba Tri, Tỉnh Bến Tre.","Region":"Mekong1","Province":"Ben Tre","District":"Ba Tri"}},{"type":"Point","coordinates":[108.918887,13.907478],"properties":{"Storecode":"998","Storename":"BDI - 324 Quang Trung","Address":"324 Quang Trung, Thị Trấn Phú Phong, Huyện Tây Sơn, Tỉnh Bình Định","Region":"Central2","Province":"Binh Dinh","District":"Tay Son"}},{"type":"Point","coordinates":[105.232654,10.58093],"properties":{"Storecode":"999","Storename":"AGI - 110 Quốc Lộ 91","Address":"110 Quốc Lộ 91, Thị Trấn Cái Dầu, Huyện Châu Phú, Tỉnh An Giang","Region":"Mekong2","Province":"An Giang","District":"Chau Phu"}},{"type":"Point","coordinates":[105.867104,20.997276],"properties":{"Storecode":"1000","Storename":"HNI - SO-02-T7 Vinhomes Times City","Address":"SO-02-T7 Khu đô thị Vinhomes Times City, số 458 đường Minh Khai, Phường Vĩnh Tuy, Quận Hai Bà Trưng, Thành Phố Hà Nội","Region":"North","Province":"Ha Noi","District":"Hai Ba Trung"}}]}}}